$GPGGA,174655.00,3403.385389,N,11711.745906,W,1,07,1.6,392.57,M,-32.50,M,,*5F
$GPVTG,297.0,T,297.0,M,000.5,N,000.9,K,A*2F
$GPGSV,2,1,07,09,56,267,48,02,56,188,46,10,15,126,,17,30,053,43*7E
$GPGSV,2,2,07,28,15,112,32,12,32,314,38,04,66,083,49,,,,*4E
$GLGSV,2,1,08,82,44,274,47,65,09,055,,66,08,106,,79,75,243,42*6C
$GLGSV,2,2,08,81,53,006,45,80,37,324,42,88,11,046,,78,23,167,*66
$GNGSA,M,3,04,09,02,17,,,,,,,,,3.5,1.6,3.1*2A
$GNGSA,M,3,79,81,82,,,,,,,,,,3.5,1.6,3.1*2E
$GPRMC,174655.00,A,3403.385389,N,11711.745906,W,000.5,297.0,021111,0.0,E,A*2E
$GPGGA,174656.00,3403.385433,N,11711.746038,W,1,07,1.6,392.48,M,-32.50,M,,*53
$GPVTG,287.9,T,287.9,M,000.4,N,000.7,K,A*20
$GPGSV,2,1,07,09,56,267,46,02,56,188,45,10,15,126,,17,30,053,44*74
$GPGSV,2,2,07,28,15,112,28,12,32,314,,04,66,083,47,,,,*40
$GLGSV,2,1,08,82,44,274,47,65,09,055,,66,08,106,,79,75,243,44*6A
$GLGSV,2,2,08,81,53,006,47,80,37,324,38,88,11,046,,78,23,167,*69
$GNGSA,M,3,04,09,02,17,,,,,,,,,3.5,1.6,3.1*2A
$GNGSA,M,3,79,81,82,,,,,,,,,,3.5,1.6,3.1*2E
$GPRMC,174656.00,A,3403.385433,N,11711.746038,W,000.4,287.9,021111,0.0,E,A*25
$GPGGA,174657.00,3403.385434,N,11711.746308,W,1,07,1.6,392.38,M,-32.50,M,,*52
$GPVTG,258.5,T,258.5,M,001.2,N,002.2,K,A*20
$GPGSV,2,1,07,09,56,267,48,02,56,188,39,10,15,126,,17,30,053,44*71
$GPGSV,2,2,07,28,15,112,,12,32,314,,04,66,083,48,,,,*45
$GLGSV,2,1,08,82,44,274,48,65,09,055,,66,08,106,,79,75,243,42*63
$GLGSV,2,2,08,81,53,006,45,80,37,324,,88,11,046,,78,23,167,*60
$GNGSA,M,3,04,09,02,17,,,,,,,,,3.5,1.6,3.1*2A
$GNGSA,M,3,79,81,82,,,,,,,,,,3.5,1.6,3.1*2E
$GPRMC,174657.00,A,3403.385434,N,11711.746308,W,001.2,258.5,021111,0.0,E,A*2A
$GPGGA,174658.00,3403.385430,N,11711.746768,W,1,07,1.6,392.03,M,-32.50,M,,*53
$GPVTG,266.3,T,266.3,M,001.5,N,002.7,K,A*22
$GPGSV,2,1,07,09,56,267,48,02,56,188,39,10,15,126,,17,30,053,42*77
$GPGSV,2,2,07,28,15,112,,12,32,314,,04,66,083,44,,,,*49
$GLGSV,2,1,08,82,44,274,49,65,09,055,,66,08,106,,79,75,243,46*66
$GLGSV,2,2,08,81,53,006,43,80,37,324,,88,11,046,,78,23,167,*66
$GNGSA,M,3,04,09,02,17,,,,,,,,,3.5,1.6,3.1*2A
$GNGSA,M,3,79,81,82,,,,,,,,,,3.5,1.6,3.1*2E
$GPRMC,174658.00,A,3403.385430,N,11711.746768,W,001.5,266.3,021111,0.0,E,A*2F
$GPGGA,174659.00,3403.385400,N,11711.747350,W,1,07,1.6,391.87,M,-32.50,M,,*50
$GPVTG,263.7,T,263.7,M,002.0,N,003.8,K,A*2A
$GPGSV,2,1,07,09,56,267,49,02,56,188,49,10,15,126,,17,30,053,41*72
$GPGSV,2,2,07,28,15,112,33,12,32,314,,04,66,083,46,,,,*4B
$GLGSV,2,1,08,82,44,274,48,65,09,055,,66,08,106,,79,75,243,46*67
$GLGSV,2,2,08,81,53,006,,80,37,324,,88,11,046,,78,23,167,*61
$GNGSA,M,3,04,09,02,17,,,,,,,,,3.5,1.6,3.1*2A
$GNGSA,M,3,79,81,82,,,,,,,,,,3.5,1.6,3.1*2E
$GPRMC,174659.00,A,3403.385400,N,11711.747350,W,002.0,263.7,021111,0.0,E,A*24
$GPGGA,174700.00,3403.385292,N,11711.748066,W,1,07,1.6,391.77,M,-32.50,M,,*56
$GPVTG,259.4,T,259.4,M,002.2,N,004.0,K,A*27
$GPGSV,2,1,07,09,56,267,48,02,56,188,46,10,15,126,,17,30,053,40*7D
$GPGSV,2,2,07,28,15,112,33,12,32,314,37,04,66,083,46,,,,*4F
$GLGSV,2,1,08,82,44,274,49,65,09,055,,66,08,106,,79,75,243,47*67
$GLGSV,2,2,08,81,53,006,,80,37,324,,88,11,046,,78,23,167,*61
$GNGSA,M,3,04,09,02,17,,,,,,,,,3.5,1.6,3.1*2A
$GNGSA,M,3,79,81,82,,,,,,,,,,3.5,1.6,3.1*2E
$GPRMC,174700.00,A,3403.385292,N,11711.748066,W,002.2,259.4,021111,0.0,E,A*25
$GPGGA,174701.00,3403.385159,N,11711.748720,W,1,07,1.6,391.29,M,-32.50,M,,*5D
$GPVTG,249.8,T,249.8,M,002.0,N,003.7,K,A*25
$GPGSV,2,1,07,09,56,267,48,02,56,188,38,10,15,126,,17,30,053,*70
$GPGSV,2,2,07,28,15,112,,12,32,314,40,04,66,083,45,,,,*4C
$GLGSV,2,1,08,82,44,274,48,65,09,055,,66,08,106,,79,75,243,45*64
$GLGSV,2,2,08,81,53,006,,80,37,324,,88,11,046,,78,23,167,*61
$GNGSA,M,3,04,09,02,17,,,,,,,,,3.5,1.6,3.1*2A
$GNGSA,M,3,79,81,82,,,,,,,,,,3.5,1.6,3.1*2E
$GPRMC,174701.00,A,3403.385159,N,11711.748720,W,002.0,249.8,021111,0.0,E,A*2A
$GPGGA,174702.00,3403.385055,N,11711.749369,W,1,07,1.6,391.22,M,-32.50,M,,*50
$GPVTG,255.6,T,255.6,M,001.9,N,003.5,K,A*2D
$GPGSV,2,1,07,09,56,267,47,02,56,188,36,10,15,126,,17,30,053,37*75
$GPGSV,2,2,07,28,15,112,,12,32,314,43,04,66,083,39,,,,*44
$GLGSV,2,1,08,82,44,274,48,65,09,055,,66,08,106,,79,75,243,46*67
$GLGSV,2,2,08,81,53,006,,80,37,324,,88,11,046,,78,23,167,*61
$GNGSA,M,3,04,09,02,17,,,,,,,,,3.5,1.6,3.1*2A
$GNGSA,M,3,79,81,82,,,,,,,,,,3.5,1.6,3.1*2E
$GPRMC,174702.00,A,3403.385055,N,11711.749369,W,001.9,255.6,021111,0.0,E,A*25
$GPGGA,174703.00,3403.385049,N,11711.750119,W,1,07,1.6,391.37,M,-32.50,M,,*55
$GPVTG,269.8,T,269.8,M,002.1,N,003.8,K,A*2B
$GPGSV,2,1,07,09,56,267,47,02,56,188,,10,15,126,,17,30,053,43*73
$GPGSV,2,2,07,28,15,112,,12,32,314,41,04,66,083,47,,,,*4F
$GLGSV,2,1,08,82,44,274,47,65,09,055,,66,08,106,,79,75,243,47*69
$GLGSV,2,2,08,81,53,006,,80,37,324,45,88,11,046,,78,23,167,*60
$GNGSA,M,3,04,09,02,17,,,,,,,,,3.5,1.6,3.1*2A
$GNGSA,M,3,79,81,82,,,,,,,,,,3.5,1.6,3.1*2E
$GPRMC,174703.00,A,3403.385049,N,11711.750119,W,002.1,269.8,021111,0.0,E,A*2E
$GPGGA,174704.00,3403.385019,N,11711.750862,W,1,06,2.5,391.08,M,-32.50,M,,*5F
$GPVTG,270.7,T,270.7,M,002.2,N,004.1,K,A*26
$GPGSV,2,1,07,09,56,267,49,02,56,188,,10,15,126,,17,30,053,44*7A
$GPGSV,2,2,07,28,15,112,,12,32,314,42,04,66,083,46,,,,*4D
$GLGSV,2,1,08,82,44,274,46,65,09,055,,66,08,106,,79,75,243,46*69
$GLGSV,2,2,08,81,53,006,,80,37,324,44,88,11,046,,78,23,167,*61
$GNGSA,M,3,04,09,17,,,,,,,,,,4.2,2.5,3.4*2D
$GNGSA,M,3,79,81,82,,,,,,,,,,4.2,2.5,3.4*2B
$GPRMC,174704.00,A,3403.385019,N,11711.750862,W,002.2,270.7,021111,0.0,E,A*2D
$GPGGA,174705.00,3403.385074,N,11711.751658,W,1,07,1.6,390.73,M,-32.50,M,,*5F
$GPVTG,275.4,T,275.4,M,002.3,N,004.3,K,A*25
$GPGSV,2,1,07,09,56,267,48,02,56,188,,10,15,126,,17,30,053,44*7B
$GPGSV,2,2,07,28,15,112,,12,32,314,41,04,66,083,46,,,,*4E
$GLGSV,2,1,08,82,44,274,46,65,09,055,,66,08,106,,79,75,243,47*68
$GLGSV,2,2,08,81,53,006,43,80,37,324,46,88,11,046,,78,23,167,*64
$GNGSA,M,3,04,09,17,02,,,,,,,,,3.5,1.6,3.1*2A
$GNGSA,M,3,79,81,82,,,,,,,,,,3.5,1.6,3.1*2E
$GPRMC,174705.00,A,3403.385074,N,11711.751658,W,002.3,275.4,021111,0.0,E,A*26
$GPGGA,174706.00,3403.385104,N,11711.752438,W,1,07,1.6,390.57,M,-32.50,M,,*5B
$GPVTG,272.4,T,272.4,M,002.2,N,004.1,K,A*26
$GPGSV,2,1,07,09,56,267,49,02,56,188,,10,15,126,,17,30,053,44*7A
$GPGSV,2,2,07,28,15,112,,12,32,314,45,04,66,083,45,,,,*49
$GLGSV,2,1,08,82,44,274,48,65,09,055,,66,08,106,,79,75,243,48*69
$GLGSV,2,2,08,81,53,006,46,80,37,324,50,88,10,046,,78,23,167,*67
$GNGSA,M,3,04,09,02,17,,,,,,,,,3.5,1.6,3.1*2A
$GNGSA,M,3,79,81,82,,,,,,,,,,3.5,1.6,3.1*2E
$GPRMC,174706.00,A,3403.385104,N,11711.752438,W,002.2,272.4,021111,0.0,E,A*22
$GPGGA,174707.00,3403.385263,N,11711.753284,W,1,07,1.6,390.63,M,-32.50,M,,*5F
$GPVTG,271.4,T,271.4,M,002.4,N,004.5,K,A*24
$GPGSV,2,1,07,09,56,267,49,02,56,188,35,10,15,126,,17,30,053,41*79
$GPGSV,2,2,07,28,15,112,,12,32,314,46,04,66,083,46,,,,*49
$GLGSV,2,1,08,82,44,274,48,65,09,055,,66,08,106,,79,75,243,47*66
$GLGSV,2,2,08,81,53,006,47,80,37,324,48,88,10,046,,78,23,167,*6F
$GNGSA,M,3,04,09,02,17,,,,,,,,,3.5,1.6,3.1*2A
$GNGSA,M,3,79,81,82,,,,,,,,,,3.5,1.6,3.1*2E
$GPRMC,174707.00,A,3403.385263,N,11711.753284,W,002.4,271.4,021111,0.0,E,A*24
$GPGGA,174708.00,3403.385282,N,11711.754149,W,1,07,1.6,390.64,M,-32.50,M,,*5D
$GPVTG,270.9,T,270.9,M,002.6,N,004.8,K,A*2B
$GPGSV,2,1,07,09,56,267,49,02,56,188,,10,15,126,,17,30,053,40*7E
$GPGSV,2,2,07,28,15,112,,12,32,314,39,04,66,083,46,,,,*41
$GLGSV,2,1,08,82,44,274,48,65,09,055,,66,08,106,,79,75,243,46*67
$GLGSV,2,2,08,81,53,006,45,80,37,324,47,88,10,046,,78,23,167,*62
$GNGSA,M,3,04,09,02,17,,,,,,,,,3.5,1.6,3.1*2A
$GNGSA,M,3,79,81,82,,,,,,,,,,3.5,1.6,3.1*2E
$GPRMC,174708.00,A,3403.385282,N,11711.754149,W,002.6,270.9,021111,0.0,E,A*2F
$GPGGA,174709.00,3403.385441,N,11711.755015,W,1,07,1.6,390.66,M,-32.50,M,,*5E
$GPVTG,266.5,T,266.5,M,002.6,N,004.7,K,A*24
$GPGSV,2,1,07,09,56,267,49,02,56,188,,10,15,126,,17,30,053,*7A
$GPGSV,2,2,07,28,15,112,,12,32,314,44,04,66,083,45,,,,*48
$GLGSV,2,1,08,82,44,274,49,65,09,055,,66,08,106,,79,75,243,47*67
$GLGSV,2,2,08,81,53,006,47,80,37,324,47,88,10,046,,78,23,167,*60
$GNGSA,M,3,04,09,02,17,,,,,,,,,3.5,1.6,3.1*2A
$GNGSA,M,3,79,81,82,,,,,,,,,,3.5,1.6,3.1*2E
$GPRMC,174709.00,A,3403.385441,N,11711.755015,W,002.6,266.5,021111,0.0,E,A*25
$GPGGA,174710.00,3403.385479,N,11711.755860,W,1,07,1.9,390.41,M,-32.50,M,,*5D
$GPVTG,264.9,T,264.9,M,002.6,N,004.8,K,A*2B
$GPGSV,2,1,07,09,56,267,46,02,56,188,35,10,15,126,,17,30,053,*73
$GPGSV,2,2,07,28,15,112,,12,32,314,42,04,66,083,46,,,,*4D
$GLGSV,2,1,08,82,44,274,49,65,09,055,,66,08,106,,79,75,243,47*67
$GLGSV,2,2,08,81,53,006,42,80,37,324,45,88,10,046,,78,23,167,*67
$GNGSA,M,2,04,09,02,,,,,,,,,,6.4,1.9,6.1*23
$GNGSA,M,2,79,81,82,80,,,,,,,,,6.4,1.9,6.1*29
$GPRMC,174710.00,A,3403.385479,N,11711.755860,W,002.6,264.9,021111,0.0,E,A*22
$GPGGA,174711.00,3403.385369,N,11711.756685,W,1,08,1.4,390.17,M,-32.50,M,,*5D
$GPVTG,256.4,T,256.4,M,002.7,N,004.9,K,A*2B
$GPGSV,2,1,07,09,56,267,47,02,56,188,34,10,15,126,,17,30,053,*73
$GPGSV,2,2,07,28,15,112,,12,32,314,41,04,66,083,46,,,,*4E
$GLGSV,2,1,08,82,44,274,46,65,09,055,,66,08,106,,79,75,243,47*68
$GLGSV,2,2,08,81,53,006,46,80,37,324,48,88,10,046,,78,23,167,*6E
$GNGSA,M,3,04,09,02,17,,,,,,,,,3.3,1.4,3.0*2F
$GNGSA,M,3,80,79,81,82,,,,,,,,,3.3,1.4,3.0*23
$GPRMC,174711.00,A,3403.385369,N,11711.756685,W,002.7,256.4,021111,0.0,E,A*2E
$GPGGA,174712.00,3403.385319,N,11711.757432,W,1,08,1.4,389.99,M,-32.50,M,,*58
$GPVTG,258.3,T,258.3,M,002.2,N,004.0,K,A*27
$GPGSV,2,1,07,09,56,267,48,02,56,188,35,10,15,126,,17,30,053,*7D
$GPGSV,2,2,07,28,15,112,,12,32,314,44,04,66,083,46,,,,*4B
$GLGSV,2,1,08,82,44,274,49,65,09,055,,66,08,106,,79,75,243,47*67
$GLGSV,2,2,08,81,53,006,48,80,37,324,46,88,10,046,,78,23,167,*6E
$GNGSA,M,3,04,09,02,17,,,,,,,,,3.3,1.4,3.0*2F
$GNGSA,M,3,80,79,81,82,,,,,,,,,3.3,1.4,3.0*23
$GPRMC,174712.00,A,3403.385319,N,11711.757432,W,002.2,258.3,021111,0.0,E,A*29
$GPGGA,174713.00,3403.385241,N,11711.758117,W,1,08,1.4,389.99,M,-32.50,M,,*58
$GPVTG,262.0,T,262.0,M,002.1,N,003.9,K,A*2A
$GPGSV,2,1,07,09,56,267,48,02,56,188,,10,15,126,,17,30,053,35*7D
$GPGSV,2,2,07,28,15,112,,12,32,314,43,04,66,083,47,,,,*4D
$GLGSV,2,1,08,82,44,274,49,65,09,055,,66,08,106,,79,75,243,47*67
$GLGSV,2,2,08,81,53,006,47,80,37,324,45,88,10,046,,78,23,167,*62
$GNGSA,M,3,04,09,02,17,,,,,,,,,3.3,1.4,3.0*2F
$GNGSA,M,3,80,79,81,82,,,,,,,,,3.3,1.4,3.0*23
$GPRMC,174713.00,A,3403.385241,N,11711.758117,W,002.1,262.0,021111,0.0,E,A*20
$GPGGA,174714.00,3403.385217,N,11711.758794,W,1,08,1.4,389.92,M,-32.50,M,,*5A
$GPVTG,264.8,T,264.8,M,002.2,N,004.0,K,A*27
$GPGSV,2,1,07,09,56,267,48,02,56,188,33,10,15,126,,17,30,053,36*7E
$GPGSV,2,2,07,28,15,112,,12,32,314,43,04,66,083,46,,,,*4C
$GLGSV,2,1,08,82,44,274,49,65,09,055,,66,08,106,,79,75,243,47*67
$GLGSV,2,2,08,81,53,006,47,80,37,324,47,88,10,047,,78,23,167,*61
$GNGSA,M,3,04,09,02,17,,,,,,,,,3.3,1.4,3.0*2F
$GNGSA,M,3,80,79,81,82,,,,,,,,,3.3,1.4,3.0*23
$GPRMC,174714.00,A,3403.385217,N,11711.758794,W,002.2,264.8,021111,0.0,E,A*24
$GPGGA,174715.00,3403.385262,N,11711.759455,W,1,08,1.4,389.68,M,-32.50,M,,*53
$GPVTG,259.9,T,259.9,M,002.0,N,003.7,K,A*25
$GPGSV,2,1,07,09,56,267,49,02,56,188,35,10,15,126,,17,30,053,*7C
$GPGSV,2,2,07,28,15,112,,12,32,314,45,04,66,083,46,,,,*4A
$GLGSV,2,1,08,82,44,274,48,65,09,055,,66,08,106,,79,75,243,46*67
$GLGSV,2,2,08,81,53,006,46,80,37,324,47,88,10,047,,78,23,167,*60
$GNGSA,M,3,04,09,02,17,,,,,,,,,3.3,1.4,3.0*2F
$GNGSA,M,3,80,79,81,82,,,,,,,,,3.3,1.4,3.0*23
$GPRMC,174715.00,A,3403.385262,N,11711.759455,W,002.0,259.9,021111,0.0,E,A*25
$GPGGA,174716.00,3403.385229,N,11711.760151,W,1,08,1.4,389.61,M,-32.50,M,,*5D
$GPVTG,266.4,T,266.4,M,002.1,N,003.9,K,A*2A
$GPGSV,2,1,07,09,56,267,48,02,56,188,,10,15,126,,17,30,053,*7B
$GPGSV,2,2,07,28,15,112,,12,32,314,44,04,66,083,45,,,,*48
$GLGSV,2,1,08,82,44,274,49,65,09,055,,66,08,106,,79,75,243,46*66
$GLGSV,2,2,08,81,53,006,47,80,37,324,47,88,10,047,,78,23,167,*61
$GNGSA,M,3,04,09,02,17,,,,,,,,,3.3,1.4,3.0*2F
$GNGSA,M,3,80,79,81,82,,,,,,,,,3.3,1.4,3.0*23
$GPRMC,174716.00,A,3403.385229,N,11711.760151,W,002.1,266.4,021111,0.0,E,A*22
$GPGGA,174717.00,3403.385405,N,11711.760972,W,1,08,1.9,389.97,M,-32.50,M,,*59
$GPVTG,271.1,T,271.1,M,002.3,N,004.3,K,A*25
$GPGSV,2,1,07,09,56,267,48,02,56,188,37,10,15,126,,17,30,053,*7F
$GPGSV,2,2,07,28,15,112,,12,32,314,44,04,66,083,44,,,,*49
$GLGSV,2,1,08,82,44,274,49,65,09,055,,66,08,106,,79,75,243,45*65
$GLGSV,2,2,08,81,53,006,48,80,37,324,49,88,10,047,,78,23,167,*60
$GNGSA,M,3,04,09,02,17,,,,,,,,,5.5,1.9,5.2*26
$GNGSA,M,3,80,79,81,82,,,,,,,,,5.5,1.9,5.2*2A
$GPRMC,174717.00,A,3403.385405,N,11711.760972,W,002.3,271.1,021111,0.0,E,A*23
$GPGGA,174718.00,3403.385406,N,11711.761728,W,1,08,1.4,389.69,M,-32.50,M,,*59
$GPVTG,275.1,T,275.1,M,002.2,N,004.1,K,A*26
$GPGSV,2,1,07,09,56,267,47,02,56,188,,10,15,126,,17,30,053,*74
$GPGSV,2,2,07,28,15,112,,12,32,314,39,04,66,082,45,,,,*43
$GLGSV,2,1,08,82,44,274,50,65,09,055,,66,08,106,,79,75,242,46*6F
$GLGSV,2,2,08,81,53,006,48,80,37,324,49,88,10,047,,78,23,167,*60
$GNGSA,M,3,04,09,02,17,,,,,,,,,3.3,1.4,3.0*2F
$GNGSA,M,3,80,79,81,82,,,,,,,,,3.3,1.4,3.0*23
$GPRMC,174718.00,A,3403.385406,N,11711.761728,W,002.2,275.1,021111,0.0,E,A*2A
$GPGGA,174719.00,3403.385561,N,11711.762578,W,1,08,1.4,389.90,M,-32.50,M,,*5A
$GPVTG,278.7,T,278.7,M,002.6,N,004.8,K,A*2B
$GPGSV,2,1,07,09,56,267,48,02,56,188,34,10,15,126,,17,30,053,*7C
$GPGSV,2,2,07,28,15,112,,12,32,314,37,04,66,082,45,,,,*4D
$GLGSV,2,1,08,82,44,274,49,65,09,055,,66,08,106,,79,75,242,47*66
$GLGSV,2,2,08,81,53,006,47,80,37,324,47,88,10,047,,78,23,167,*61
$GNGSA,M,3,04,09,02,17,,,,,,,,,3.3,1.4,3.0*2F
$GNGSA,M,3,80,79,81,82,,,,,,,,,3.3,1.4,3.0*23
$GPRMC,174719.00,A,3403.385561,N,11711.762578,W,002.6,278.7,021111,0.0,E,A*20
$GPGGA,174720.00,3403.385707,N,11711.763357,W,1,08,1.4,389.74,M,-32.50,M,,*52
$GPVTG,285.9,T,285.9,M,002.3,N,004.3,K,A*25
$GPGSV,2,1,07,09,56,267,46,02,56,188,36,10,15,126,,17,30,053,*70
$GPGSV,2,2,07,28,15,112,,12,32,314,,04,66,082,46,,,,*4A
$GLGSV,2,1,08,82,44,274,50,65,09,055,,66,08,106,,79,75,242,46*6F
$GLGSV,2,2,08,81,53,006,46,80,37,324,47,88,10,047,,78,23,167,*60
$GNGSA,M,3,04,09,02,17,,,,,,,,,3.3,1.4,3.0*2F
$GNGSA,M,3,80,79,81,82,,,,,,,,,3.3,1.4,3.0*23
$GPRMC,174720.00,A,3403.385707,N,11711.763357,W,002.3,285.9,021111,0.0,E,A*2B
$GPGGA,174721.00,3403.385943,N,11711.764298,W,1,08,1.4,390.58,M,-32.50,M,,*5E
$GPVTG,294.5,T,294.5,M,002.6,N,004.9,K,A*2A
$GPGSV,2,1,07,09,56,267,49,02,56,188,42,10,15,126,,17,30,053,39*76
$GPGSV,2,2,07,28,15,112,,12,32,314,,04,66,082,48,,,,*44
$GLGSV,2,1,08,82,44,274,48,65,09,055,,66,08,106,,79,75,242,46*66
$GLGSV,2,2,08,81,53,006,47,80,37,324,42,88,10,047,,78,23,167,*64
$GNGSA,M,3,04,09,02,17,,,,,,,,,3.3,1.4,3.0*2F
$GNGSA,M,3,80,79,81,82,,,,,,,,,3.3,1.4,3.0*23
$GPRMC,174721.00,A,3403.385943,N,11711.764298,W,002.6,294.5,021111,0.0,E,A*28
$GPGGA,174722.00,3403.386022,N,11711.765178,W,1,08,1.4,391.00,M,-32.50,M,,*50
$GPVTG,279.1,T,279.1,M,002.4,N,004.4,K,A*25
$GPGSV,2,1,07,09,56,267,48,02,56,188,44,10,15,126,,17,30,053,42*7D
$GPGSV,2,2,07,28,15,112,,12,32,315,37,04,66,082,48,,,,*41
$GLGSV,2,1,08,82,44,274,47,65,09,055,,66,08,106,,79,75,242,46*69
$GLGSV,2,2,08,81,53,006,46,80,37,324,38,88,10,047,,78,23,167,*68
$GNGSA,M,3,04,09,02,17,,,,,,,,,3.3,1.4,3.0*2F
$GNGSA,M,3,80,79,81,82,,,,,,,,,3.3,1.4,3.0*23
$GPRMC,174722.00,A,3403.386022,N,11711.765178,W,002.4,279.1,021111,0.0,E,A*2F
$GPGGA,174723.00,3403.385994,N,11711.766037,W,1,08,1.4,391.28,M,-32.50,M,,*55
$GPVTG,268.2,T,268.2,M,002.4,N,004.4,K,A*25
$GPGSV,2,1,07,09,56,267,48,02,56,188,46,10,15,126,,17,30,053,42*7F
$GPGSV,2,2,07,28,15,112,,12,32,315,37,04,66,082,49,,,,*40
$GLGSV,2,1,08,82,44,274,46,65,09,055,,66,08,106,,79,75,242,45*6B
$GLGSV,2,2,08,81,53,006,46,80,37,324,,88,10,047,,78,23,167,*63
$GNGSA,M,3,04,09,02,17,,,,,,,,,3.3,1.4,3.0*2F
$GNGSA,M,3,80,79,81,82,,,,,,,,,3.3,1.4,3.0*23
$GPRMC,174723.00,A,3403.385994,N,11711.766037,W,002.4,268.2,021111,0.0,E,A*23
$GPGGA,174724.00,3403.385911,N,11711.766858,W,1,08,1.4,391.33,M,-32.50,M,,*54
$GPVTG,268.9,T,268.9,M,002.3,N,004.2,K,A*24
$GPGSV,2,1,07,09,56,267,46,02,56,188,46,10,15,126,,17,30,053,45*76
$GPGSV,2,2,07,28,15,112,,12,32,315,,04,66,082,49,,,,*44
$GLGSV,2,1,08,82,44,274,46,65,09,055,,66,08,106,,79,75,242,46*68
$GLGSV,2,2,08,81,53,006,46,80,37,324,,88,10,047,,78,23,167,*63
$GNGSA,M,3,04,09,02,17,,,,,,,,,3.3,1.4,3.0*2F
$GNGSA,M,3,80,79,81,82,,,,,,,,,3.3,1.4,3.0*23
$GPRMC,174724.00,A,3403.385911,N,11711.766858,W,002.3,268.9,021111,0.0,E,A*24
$GPGGA,174725.00,3403.385754,N,11711.767663,W,1,08,1.4,391.18,M,-32.50,M,,*54
$GPVTG,260.9,T,260.9,M,002.3,N,004.3,K,A*25
$GPGSV,2,1,07,09,56,267,45,02,56,188,41,10,15,126,,17,30,053,44*73
$GPGSV,2,2,07,28,15,112,,12,32,315,,04,66,082,49,,,,*44
$GLGSV,2,1,08,82,44,274,46,65,09,055,,66,08,106,,79,75,242,42*6C
$GLGSV,2,2,08,81,53,006,46,80,37,324,,88,10,047,,78,23,167,*63
$GNGSA,M,3,04,09,02,17,,,,,,,,,3.3,1.4,3.0*2F
$GNGSA,M,3,80,79,81,82,,,,,,,,,3.3,1.4,3.0*23
$GPRMC,174725.00,A,3403.385754,N,11711.767663,W,002.3,260.9,021111,0.0,E,A*25
$GPGGA,174726.00,3403.385527,N,11711.768436,W,1,08,1.4,391.23,M,-32.50,M,,*54
$GPVTG,247.9,T,247.9,M,002.3,N,004.2,K,A*24
$GPGSV,2,1,07,09,56,267,47,02,56,188,39,10,15,126,,17,30,054,46*7B
$GPGSV,2,2,07,28,15,112,,12,32,315,,04,66,082,47,,,,*4A
$GLGSV,2,1,08,82,44,274,46,65,09,055,,66,08,106,,79,75,242,44*6A
$GLGSV,2,2,08,81,53,006,42,80,37,324,,88,10,047,,78,23,167,*67
$GNGSA,M,3,04,09,02,17,,,,,,,,,3.3,1.4,3.0*2F
$GNGSA,M,3,80,79,81,82,,,,,,,,,3.3,1.4,3.0*23
$GPRMC,174726.00,A,3403.385527,N,11711.768436,W,002.3,247.9,021111,0.0,E,A*28
$GPGGA,174727.00,3403.385278,N,11711.769223,W,1,08,1.4,391.09,M,-32.50,M,,*53
$GPVTG,249.7,T,249.7,M,002.4,N,004.4,K,A*25
$GPGSV,2,1,07,09,56,267,46,02,56,188,36,10,15,126,,17,30,054,47*74
$GPGSV,2,2,07,28,15,112,,12,32,315,,04,66,082,48,,,,*45
$GLGSV,2,1,08,82,44,274,46,65,09,055,,66,08,106,,79,75,242,41*6F
$GLGSV,2,2,08,81,53,006,44,80,37,324,,88,10,047,,78,23,167,*61
$GNGSA,M,3,04,09,02,17,,,,,,,,,3.3,1.4,3.0*2F
$GNGSA,M,3,80,79,81,82,,,,,,,,,3.3,1.4,3.0*23
$GPRMC,174727.00,A,3403.385278,N,11711.769223,W,002.4,249.7,021111,0.0,E,A*20
$GPGGA,174728.00,3403.385107,N,11711.770116,W,1,07,1.6,391.18,M,-32.50,M,,*57
$GPVTG,257.8,T,257.8,M,002.8,N,005.2,K,A*2E
$GPGSV,2,1,07,09,56,267,48,02,56,188,44,10,15,126,,17,30,054,48*70
$GPGSV,2,2,07,28,15,112,,12,32,315,,04,66,082,47,,,,*4A
$GLGSV,2,1,08,82,44,274,42,65,09,055,,66,08,106,,79,75,242,44*6E
$GLGSV,2,2,08,81,53,006,41,80,37,324,,88,10,047,,78,23,167,*64
$GNGSA,M,3,04,09,02,17,,,,,,,,,3.5,1.6,3.1*2A
$GNGSA,M,3,79,81,82,,,,,,,,,,3.5,1.6,3.1*2E
$GPRMC,174728.00,A,3403.385107,N,11711.770116,W,002.8,257.8,021111,0.0,E,A*25
$GPGGA,174729.00,3403.384827,N,11711.770996,W,1,08,1.4,391.24,M,-32.50,M,,*5E
$GPVTG,247.2,T,247.2,M,002.8,N,005.1,K,A*2D
$GPGSV,2,1,07,09,56,267,43,02,56,188,42,10,15,126,,17,30,054,46*73
$GPGSV,2,2,07,28,15,112,,12,32,315,38,04,66,082,43,,,,*45
$GLGSV,2,1,08,82,44,274,42,65,09,055,,66,08,106,,79,75,242,45*6F
$GLGSV,2,2,08,81,53,006,44,80,37,324,,88,10,047,,78,23,167,*61
$GNGSA,M,3,04,09,02,17,,,,,,,,,3.4,1.4,3.0*28
$GNGSA,M,3,79,81,82,80,,,,,,,,,3.4,1.4,3.0*24
$GPRMC,174729.00,A,3403.384827,N,11711.770996,W,002.8,247.2,021111,0.0,E,A*25
$GPGGA,174730.00,3403.384562,N,11711.771859,W,1,08,1.4,391.28,M,-32.50,M,,*55
$GPVTG,252.9,T,252.9,M,002.8,N,005.1,K,A*2D
$GPGSV,2,1,07,09,56,267,44,02,56,188,41,10,15,126,,17,30,054,46*77
$GPGSV,2,2,07,28,15,112,,12,32,315,38,04,66,082,46,,,,*40
$GLGSV,2,1,08,82,44,274,40,65,09,055,,66,08,106,,79,75,242,46*6E
$GLGSV,2,2,08,81,53,006,45,80,37,324,,88,10,047,,78,23,167,*60
$GNGSA,M,3,04,09,02,17,,,,,,,,,3.4,1.4,3.0*28
$GNGSA,M,3,80,79,81,82,,,,,,,,,3.4,1.4,3.0*24
$GPRMC,174730.00,A,3403.384562,N,11711.771859,W,002.8,252.9,021111,0.0,E,A*2D
$GPGGA,174731.00,3403.384341,N,11711.772688,W,1,08,1.4,391.43,M,-32.50,M,,*5F
$GPVTG,253.2,T,253.2,M,002.6,N,004.9,K,A*2A
$GPGSV,2,1,07,09,56,267,43,02,56,188,44,10,15,126,,17,30,054,46*75
$GPGSV,2,2,07,28,15,112,,12,32,315,,04,66,082,47,,,,*4A
$GLGSV,2,1,08,82,44,274,44,65,09,055,,66,08,106,,79,75,242,44*68
$GLGSV,2,2,08,81,53,006,45,80,37,324,,88,10,047,,78,23,167,*60
$GNGSA,M,3,04,09,02,17,,,,,,,,,3.4,1.4,3.0*28
$GNGSA,M,3,80,79,81,82,,,,,,,,,3.4,1.4,3.0*24
$GPRMC,174731.00,A,3403.384341,N,11711.772688,W,002.6,253.2,021111,0.0,E,A*2E
$GPGGA,174732.00,3403.384199,N,11711.773570,W,1,08,1.4,391.37,M,-32.50,M,,*5D
$GPVTG,263.5,T,263.5,M,002.9,N,005.4,K,A*29
$GPGSV,2,1,07,09,56,267,42,02,56,188,38,10,15,126,,17,30,054,44*7D
$GPGSV,2,2,07,28,15,112,,12,32,315,38,04,66,082,46,,,,*40
$GLGSV,2,1,08,82,44,274,44,65,09,055,,66,08,106,,79,75,242,42*6E
$GLGSV,2,2,08,81,53,006,41,80,37,324,,88,10,047,,78,23,167,*64
$GNGSA,M,3,04,09,02,17,,,,,,,,,3.4,1.4,3.0*28
$GNGSA,M,3,80,79,81,82,,,,,,,,,3.4,1.4,3.0*24
$GPRMC,174732.00,A,3403.384199,N,11711.773570,W,002.9,263.5,021111,0.0,E,A*24
$GPGGA,174733.00,3403.384124,N,11711.774501,W,1,08,1.4,391.31,M,-32.50,M,,*5D
$GPVTG,266.1,T,266.1,M,003.0,N,005.6,K,A*23
$GPGSV,2,1,07,09,56,267,43,02,56,188,42,10,15,126,,17,30,054,45*70
$GPGSV,2,2,07,28,15,112,,12,32,315,37,04,66,082,46,,,,*4F
$GLGSV,2,1,08,82,44,274,47,65,09,055,,66,08,106,,79,75,242,42*6D
$GLGSV,2,2,08,81,53,006,44,80,37,324,,88,10,047,,78,23,167,*61
$GNGSA,M,3,04,09,02,17,,,,,,,,,3.4,1.4,3.0*28
$GNGSA,M,3,80,79,81,82,,,,,,,,,3.4,1.4,3.0*24
$GPRMC,174733.00,A,3403.384124,N,11711.774501,W,003.0,266.1,021111,0.0,E,A*2B
$GPGGA,174734.00,3403.384094,N,11711.775417,W,1,08,1.4,391.28,M,-32.50,M,,*5F
$GPVTG,268.9,T,268.9,M,002.9,N,005.4,K,A*29
$GPGSV,2,1,07,09,56,267,40,02,56,188,43,10,15,126,,17,30,054,46*71
$GPGSV,2,2,07,28,15,112,,12,32,315,39,04,66,082,48,,,,*4F
$GLGSV,2,1,08,82,44,274,42,65,09,055,,66,08,106,,79,75,242,40*6A
$GLGSV,2,2,08,81,53,006,45,80,37,324,,88,10,047,,78,23,167,*60
$GNGSA,M,3,04,09,02,17,,,,,,,,,3.4,1.4,3.0*28
$GNGSA,M,3,80,79,81,82,,,,,,,,,3.4,1.4,3.0*24
$GPRMC,174734.00,A,3403.384094,N,11711.775417,W,002.9,268.9,021111,0.0,E,A*2F
$GPGGA,174735.00,3403.384073,N,11711.776307,W,1,08,1.4,391.24,M,-32.50,M,,*5E
$GPVTG,265.0,T,265.0,M,002.9,N,005.4,K,A*29
$GPGSV,2,1,07,09,56,267,43,02,56,188,38,10,15,126,,17,30,054,45*7D
$GPGSV,2,2,07,28,15,112,,12,32,315,39,04,66,082,46,,,,*41
$GLGSV,2,1,08,82,44,274,46,65,09,055,,66,08,106,,79,75,242,41*6F
$GLGSV,2,2,08,81,53,006,44,80,37,324,,88,10,047,,78,23,167,*61
$GNGSA,M,3,04,09,02,17,,,,,,,,,3.4,1.4,3.0*28
$GNGSA,M,3,80,79,81,82,,,,,,,,,3.4,1.4,3.0*24
$GPRMC,174735.00,A,3403.384073,N,11711.776307,W,002.9,265.0,021111,0.0,E,A*26
$GPGGA,174736.00,3403.384050,N,11711.777155,W,1,08,1.4,391.07,M,-32.50,M,,*59
$GPVTG,268.8,T,268.8,M,002.7,N,004.9,K,A*2B
$GPGSV,2,1,07,09,56,267,45,02,56,188,42,10,15,126,,17,30,054,46*75
$GPGSV,2,2,07,28,15,112,,12,32,315,36,04,66,082,43,,,,*4B
$GLGSV,2,1,08,82,44,274,45,65,09,055,,66,08,106,,79,75,242,41*6C
$GLGSV,2,2,08,81,53,006,43,80,37,324,,88,10,047,,78,23,167,*66
$GNGSA,M,3,04,09,02,17,,,,,,,,,3.4,1.4,3.0*28
$GNGSA,M,3,80,79,81,82,,,,,,,,,3.4,1.4,3.0*24
$GPRMC,174736.00,A,3403.384050,N,11711.777155,W,002.7,268.8,021111,0.0,E,A*2B
$GPGGA,174737.00,3403.384064,N,11711.778001,W,1,08,1.4,390.85,M,-32.50,M,,*5B
$GPVTG,272.9,T,272.9,M,002.8,N,005.2,K,A*2E
$GPGSV,2,1,07,09,56,267,47,02,56,188,42,10,15,126,,17,30,054,44*75
$GPGSV,2,2,07,28,15,112,,12,32,315,,04,66,082,42,,,,*4F
$GLGSV,2,1,08,82,44,274,46,65,09,055,,66,08,106,,79,75,242,42*6C
$GLGSV,2,2,08,81,53,006,43,80,37,324,,88,10,047,,78,23,167,*66
$GNGSA,M,3,04,09,02,17,,,,,,,,,3.4,1.4,3.0*28
$GNGSA,M,3,80,79,81,82,,,,,,,,,3.4,1.4,3.0*24
$GPRMC,174737.00,A,3403.384064,N,11711.778001,W,002.8,272.9,021111,0.0,E,A*27
$GPGGA,174738.00,3403.384165,N,11711.778805,W,1,08,1.4,390.92,M,-32.50,M,,*5E
$GPVTG,278.4,T,278.4,M,002.5,N,004.7,K,A*27
$GPGSV,2,1,07,09,56,267,46,02,56,188,42,10,15,126,,17,30,054,44*74
$GPGSV,2,2,07,28,15,112,,12,32,315,,04,66,082,44,,,,*49
$GLGSV,2,1,08,82,44,274,44,65,09,055,,66,08,106,,79,75,242,44*68
$GLGSV,2,2,08,81,53,006,46,80,37,324,,88,10,047,,78,23,167,*63
$GNGSA,M,3,04,09,02,17,,,,,,,,,3.4,1.4,3.0*28
$GNGSA,M,3,80,79,81,82,,,,,,,,,3.4,1.4,3.0*24
$GPRMC,174738.00,A,3403.384165,N,11711.778805,W,002.5,278.4,021111,0.0,E,A*2E
$GPGGA,174739.00,3403.384281,N,11711.779415,W,1,08,1.4,391.08,M,-32.50,M,,*58
$GPVTG,288.3,T,288.3,M,001.7,N,003.2,K,A*24
$GPGSV,2,1,07,09,56,267,41,02,56,188,42,10,15,126,,17,30,054,40*77
$GPGSV,2,2,07,28,15,112,,12,32,315,,04,66,082,44,,,,*49
$GLGSV,2,1,08,82,44,274,41,65,09,055,,66,08,106,,79,75,242,43*6A
$GLGSV,2,2,08,81,53,006,43,80,37,324,41,88,10,047,,78,23,167,*63
$GNGSA,M,3,04,09,02,17,,,,,,,,,3.4,1.4,3.0*28
$GNGSA,M,3,80,79,81,82,,,,,,,,,3.4,1.4,3.0*24
$GPRMC,174739.00,A,3403.384281,N,11711.779415,W,001.7,288.3,021111,0.0,E,A*23
$GPGGA,174740.00,3403.384307,N,11711.780111,W,1,08,1.4,391.22,M,-32.50,M,,*56
$GPVTG,271.6,T,271.6,M,002.2,N,004.2,K,A*25
$GPGSV,2,1,07,09,56,267,40,02,56,188,42,10,15,126,,17,30,054,37*76
$GPGSV,2,2,07,28,15,112,,12,32,315,,04,66,082,47,,,,*4A
$GLGSV,2,1,08,82,44,274,,65,09,055,,66,08,106,,79,75,242,43*6F
$GLGSV,2,2,08,81,53,006,40,80,38,324,34,88,10,047,,78,22,167,*6C
$GNGSA,M,3,04,09,02,17,,,,,,,,,3.4,1.4,3.0*28
$GNGSA,M,3,80,79,81,82,,,,,,,,,3.4,1.4,3.0*24
$GPRMC,174740.00,A,3403.384307,N,11711.780111,W,002.2,271.6,021111,0.0,E,A*20
$GPGGA,174741.00,3403.384283,N,11711.780670,W,1,08,1.4,391.18,M,-32.50,M,,*53
$GPVTG,276.4,T,276.4,M,001.7,N,003.1,K,A*27
$GPGSV,2,1,07,09,56,267,45,02,56,188,46,10,15,126,,17,30,054,34*74
$GPGSV,2,2,07,28,15,112,,12,32,315,,04,66,082,48,,,,*45
$GLGSV,2,1,08,82,44,274,,65,09,055,,66,08,106,,79,75,242,46*6A
$GLGSV,2,2,08,81,53,006,44,80,38,324,,88,10,047,,78,22,167,*6F
$GNGSA,M,3,04,09,02,17,,,,,,,,,3.4,1.4,3.0*28
$GNGSA,M,3,80,79,81,82,,,,,,,,,3.4,1.4,3.0*24
$GPRMC,174741.00,A,3403.384283,N,11711.780670,W,001.7,276.4,021111,0.0,E,A*2F
$GPGGA,174742.00,3403.384295,N,11711.781291,W,1,08,1.4,391.34,M,-32.50,M,,*53
$GPVTG,269.2,T,269.2,M,002.0,N,003.7,K,A*25
$GPGSV,2,1,07,09,56,267,43,02,56,188,48,10,15,126,,17,30,054,*7B
$GPGSV,2,2,07,28,15,112,,12,32,315,,04,66,082,49,,,,*44
$GLGSV,2,1,08,82,44,274,,65,09,055,,66,08,105,,79,75,242,45*6A
$GLGSV,2,2,08,81,53,006,38,80,38,324,,88,10,047,,78,22,167,*64
$GNGSA,M,3,04,09,02,17,,,,,,,,,3.4,1.4,3.0*28
$GNGSA,M,3,80,79,81,82,,,,,,,,,3.4,1.4,3.0*24
$GPRMC,174742.00,A,3403.384295,N,11711.781291,W,002.0,269.2,021111,0.0,E,A*2D
$GPGGA,174743.00,3403.384299,N,11711.782095,W,1,08,1.4,391.69,M,-32.50,M,,*53
$GPVTG,261.7,T,261.7,M,002.3,N,004.3,K,A*25
$GPGSV,2,1,07,09,56,267,40,02,56,188,44,10,15,126,,17,30,054,36*71
$GPGSV,2,2,07,28,15,112,,12,32,315,,04,66,082,48,,,,*45
$GLGSV,2,1,08,82,44,274,,65,09,055,,66,08,105,,79,75,242,43*6C
$GLGSV,2,2,08,81,53,006,,80,38,324,,88,10,047,,78,22,167,*6F
$GNGSA,M,3,04,09,02,17,,,,,,,,,3.4,1.4,3.0*28
$GNGSA,M,3,80,79,81,82,,,,,,,,,3.4,1.4,3.0*24
$GPRMC,174743.00,A,3403.384299,N,11711.782095,W,002.3,261.7,021111,0.0,E,A*2B
$GPGGA,174744.00,3403.384415,N,11711.782999,W,1,08,1.4,392.26,M,-32.50,M,,*5B
$GPVTG,279.5,T,279.5,M,002.7,N,004.9,K,A*2B
$GPGSV,2,1,07,09,56,267,39,02,56,188,41,10,15,126,,17,30,054,*7F
$GPGSV,2,2,07,28,15,112,,12,32,315,,04,66,082,49,,,,*44
$GLGSV,2,1,08,82,44,274,,65,09,055,,66,08,105,,79,75,242,43*6C
$GLGSV,2,2,08,81,53,006,,80,38,324,,88,10,047,,78,22,167,*6F
$GNGSA,M,3,04,09,02,17,,,,,,,,,3.4,1.4,3.0*28
$GNGSA,M,3,80,79,81,82,,,,,,,,,3.4,1.4,3.0*24
$GPRMC,174744.00,A,3403.384415,N,11711.782999,W,002.7,279.5,021111,0.0,E,A*24
$GPGGA,174745.00,3403.384492,N,11711.783816,W,1,08,1.4,392.16,M,-32.50,M,,*51
$GPVTG,283.1,T,283.1,M,002.5,N,004.7,K,A*27
$GPGSV,2,1,07,09,56,267,36,02,56,188,48,10,15,126,,17,30,054,*79
$GPGSV,2,2,07,28,15,112,,12,32,315,39,04,66,082,48,,,,*4F
$GLGSV,2,1,08,82,44,274,,65,09,055,,66,08,105,,79,75,242,44*6B
$GLGSV,2,2,08,81,53,006,,80,38,324,,88,10,047,,78,22,167,*6F
$GNGSA,M,3,04,09,02,17,,,,,,,,,3.4,1.4,3.0*28
$GNGSA,M,3,80,79,81,82,,,,,,,,,3.4,1.4,3.0*24
$GPRMC,174745.00,A,3403.384492,N,11711.783816,W,002.5,283.1,021111,0.0,E,A*2E
$GPGGA,174746.00,3403.384480,N,11711.784618,W,1,08,1.4,392.68,M,-32.50,M,,*5F
$GPVTG,275.7,T,275.7,M,002.5,N,004.6,K,A*26
$GPGSV,2,1,07,09,56,266,35,02,56,188,47,10,15,126,,17,30,054,35*72
$GPGSV,2,2,07,28,15,112,,12,32,315,,04,66,082,48,,,,*45
$GLGSV,2,1,08,82,44,274,,65,09,055,,66,08,105,,79,75,242,47*68
$GLGSV,2,2,08,81,53,006,,80,38,324,,88,10,047,,78,22,167,*6F
$GNGSA,M,3,04,09,02,17,,,,,,,,,3.4,1.4,3.0*28
$GNGSA,M,3,80,79,81,82,,,,,,,,,3.4,1.4,3.0*24
$GPRMC,174746.00,A,3403.384480,N,11711.784618,W,002.5,275.7,021111,0.0,E,A*26
$GPGGA,174747.00,3403.384420,N,11711.785415,W,1,08,1.4,392.83,M,-32.50,M,,*5F
$GPVTG,263.2,T,263.2,M,002.6,N,004.8,K,A*2B
$GPGSV,2,1,07,09,56,266,41,02,56,188,46,10,15,126,,17,30,054,*76
$GPGSV,2,2,07,28,15,112,,12,32,315,34,04,66,082,46,,,,*4C
$GLGSV,2,1,08,82,44,274,45,65,09,055,,66,08,105,,79,75,242,44*6A
$GLGSV,2,2,08,81,53,006,,80,38,324,,88,10,047,,78,22,167,*6F
$GNGSA,M,3,04,09,02,17,,,,,,,,,3.4,1.4,3.0*28
$GNGSA,M,3,80,79,81,82,,,,,,,,,3.4,1.4,3.0*24
$GPRMC,174747.00,A,3403.384420,N,11711.785415,W,002.6,263.2,021111,0.0,E,A*22
$GPGGA,174748.00,3403.384366,N,11711.786187,W,1,08,1.4,392.97,M,-32.50,M,,*5D
$GPVTG,272.1,T,272.1,M,002.4,N,004.4,K,A*25
$GPGSV,2,1,07,09,56,266,41,02,56,188,42,10,15,126,,17,30,054,*72
$GPGSV,2,2,07,28,15,112,,12,32,315,,04,66,082,46,,,,*4B
$GLGSV,2,1,08,82,44,274,41,65,09,055,,66,08,105,,79,75,242,41*6B
$GLGSV,2,2,08,81,53,006,,80,38,324,,88,10,047,,78,22,167,*6F
$GNGSA,M,3,04,09,02,17,,,,,,,,,3.4,1.4,3.0*28
$GNGSA,M,3,80,79,81,82,,,,,,,,,3.4,1.4,3.0*24
$GPRMC,174748.00,A,3403.384366,N,11711.786187,W,002.4,272.1,021111,0.0,E,A*24
$GPGGA,174749.00,3403.384299,N,11711.787019,W,1,08,1.4,393.22,M,-32.50,M,,*55
$GPVTG,268.5,T,268.5,M,002.6,N,004.9,K,A*2A
$GPGSV,2,1,07,09,56,266,40,02,56,188,42,10,15,126,,17,30,054,*73
$GPGSV,2,2,07,28,15,112,,12,32,315,,04,66,082,47,,,,*4A
$GLGSV,2,1,08,82,44,274,45,65,09,055,,66,08,105,,79,75,242,*6A
$GLGSV,2,2,08,81,53,006,,80,38,324,,88,10,047,,78,22,167,39*65
$GNGSA,M,3,04,09,02,17,,,,,,,,,3.4,1.4,3.0*28
$GNGSA,M,3,80,79,81,82,,,,,,,,,3.4,1.4,3.0*24
$GPRMC,174749.00,A,3403.384299,N,11711.787019,W,002.6,268.5,021111,0.0,E,A*2E
$GPGGA,174750.00,3403.384229,N,11711.787951,W,1,08,1.4,393.50,M,-32.50,M,,*56
$GPVTG,263.9,T,263.9,M,003.1,N,005.7,K,A*23
$GPGSV,2,1,07,09,56,266,44,02,56,188,45,10,15,126,,17,30,054,*70
$GPGSV,2,2,07,28,15,112,,12,32,315,,04,66,082,48,,,,*45
$GLGSV,2,1,08,82,44,274,41,65,09,055,,66,08,105,,79,75,241,*6D
$GLGSV,2,2,08,81,53,006,,80,38,324,,88,10,047,,78,22,167,38*64
$GNGSA,M,3,04,09,02,17,,,,,,,,,3.4,1.4,3.0*28
$GNGSA,M,3,80,79,81,82,,,,,,,,,3.4,1.4,3.0*24
$GPRMC,174750.00,A,3403.384229,N,11711.787951,W,003.1,263.9,021111,0.0,E,A*29
$GPGGA,174751.00,3403.384072,N,11711.788906,W,1,08,1.4,393.09,M,-32.50,M,,*5A
$GPVTG,260.0,T,260.0,M,003.2,N,006.0,K,A*24
$GPGSV,2,1,07,09,56,266,44,02,56,188,45,10,15,126,,17,30,054,*70
$GPGSV,2,2,07,28,15,112,,12,32,315,38,04,66,082,48,,,,*4E
$GLGSV,2,1,08,82,44,274,47,65,09,055,,66,08,105,,79,75,241,*6B
$GLGSV,2,2,08,81,53,006,46,80,38,324,,88,10,047,,78,22,167,*6D
$GNGSA,M,3,04,09,02,17,,,,,,,,,3.4,1.4,3.0*28
$GNGSA,M,3,80,79,81,82,,,,,,,,,3.4,1.4,3.0*24
$GPRMC,174751.00,A,3403.384072,N,11711.788906,W,003.2,260.0,021111,0.0,E,A*20
$GPGGA,174752.00,3403.383883,N,11711.789762,W,1,08,1.4,392.80,M,-32.50,M,,*55
$GPVTG,254.5,T,254.5,M,003.2,N,005.9,K,A*2E
$GPGSV,2,1,07,09,56,266,42,02,56,188,45,10,15,126,,17,30,054,*76
$GPGSV,2,2,07,28,15,112,,12,32,315,41,04,66,082,46,,,,*4E
$GLGSV,2,1,08,82,44,274,43,65,09,055,,66,08,105,,79,75,241,*6F
$GLGSV,2,2,08,81,53,006,,80,38,324,,88,10,047,,78,22,167,*6F
$GNGSA,M,3,04,09,02,17,,,,,,,,,3.4,1.4,3.1*29
$GNGSA,M,3,80,79,81,82,,,,,,,,,3.4,1.4,3.1*25
$GPRMC,174752.00,A,3403.383883,N,11711.789762,W,003.2,254.5,021111,0.0,E,A*2D
$GPGGA,174753.00,3403.383580,N,11711.790634,W,1,08,1.4,392.61,M,-32.50,M,,*5F
$GPVTG,246.9,T,246.9,M,003.0,N,005.5,K,A*20
$GPGSV,2,1,07,09,56,266,43,02,56,188,41,10,15,126,,17,30,054,*73
$GPGSV,2,2,07,28,15,112,,12,32,315,44,04,66,082,45,,,,*48
$GLGSV,2,1,08,82,44,274,44,65,09,055,,66,08,105,,79,75,241,*68
$GLGSV,2,2,08,81,53,006,36,80,38,324,,88,10,047,,78,22,167,*6A
$GNGSA,M,3,04,09,02,17,,,,,,,,,3.4,1.4,3.1*29
$GNGSA,M,3,80,79,81,82,,,,,,,,,3.4,1.4,3.1*25
$GPRMC,174753.00,A,3403.383580,N,11711.790634,W,003.0,246.9,021111,0.0,E,A*25
$GPGGA,174754.00,3403.383552,N,11711.791500,W,1,08,1.4,392.94,M,-32.50,M,,*58
$GPVTG,271.1,T,271.1,M,002.6,N,004.7,K,A*24
$GPGSV,2,1,07,09,56,266,45,02,56,188,42,10,15,126,,17,29,054,32*7F
$GPGSV,2,2,07,28,15,112,,12,32,315,45,04,66,082,42,,,,*4E
$GLGSV,2,1,08,82,44,274,46,65,09,055,,66,08,105,,79,75,241,*6A
$GLGSV,2,2,08,81,53,006,36,80,38,324,,88,10,047,,78,22,167,*6A
$GNGSA,M,3,04,09,02,17,,,,,,,,,3.4,1.4,3.1*29
$GNGSA,M,3,80,79,81,82,,,,,,,,,3.4,1.4,3.1*25
$GPRMC,174754.00,A,3403.383552,N,11711.791500,W,002.6,271.1,021111,0.0,E,A*23
$GPGGA,174755.00,3403.383507,N,11711.792427,W,1,08,1.4,393.19,M,-32.50,M,,*5A
$GPVTG,267.4,T,267.4,M,002.6,N,004.8,K,A*2B
$GPGSV,2,1,07,09,56,266,44,02,56,188,42,10,15,126,,17,29,054,*7F
$GPGSV,2,2,07,28,15,112,,12,32,315,43,04,66,082,38,,,,*45
$GLGSV,2,1,08,82,44,274,42,65,09,055,,66,08,105,,79,75,241,44*6E
$GLGSV,2,2,08,81,53,006,,80,38,324,,88,10,047,,78,22,167,*6F
$GNGSA,M,3,04,09,02,17,,,,,,,,,3.4,1.4,3.1*29
$GNGSA,M,3,80,79,81,82,,,,,,,,,3.4,1.4,3.1*25
$GPRMC,174755.00,A,3403.383507,N,11711.792427,W,002.6,267.4,021111,0.0,E,A*27
$GPGGA,174756.00,3403.383546,N,11711.793310,W,1,08,1.4,393.13,M,-32.50,M,,*54
$GPVTG,273.7,T,273.7,M,002.6,N,004.8,K,A*2B
$GPGSV,2,1,07,09,56,266,46,02,56,188,46,10,15,126,,17,29,054,34*7E
$GPGSV,2,2,07,28,15,112,,12,32,315,40,04,66,082,45,,,,*4C
$GLGSV,2,1,08,82,44,274,42,65,09,055,,66,08,105,,79,75,241,46*6C
$GLGSV,2,2,08,81,53,006,,80,38,324,,88,10,047,,78,22,167,*6F
$GNGSA,M,3,04,09,02,17,,,,,,,,,3.4,1.4,3.1*29
$GNGSA,M,3,80,79,81,82,,,,,,,,,3.4,1.4,3.1*25
$GPRMC,174756.00,A,3403.383546,N,11711.793310,W,002.6,273.7,021111,0.0,E,A*25
$GPGGA,174757.00,3403.383589,N,11711.794101,W,1,08,1.4,392.73,M,-32.50,M,,*54
$GPVTG,273.7,T,273.7,M,002.3,N,004.3,K,A*25
$GPGSV,2,1,07,09,56,266,39,02,56,188,47,10,15,126,,17,29,054,37*74
$GPGSV,2,2,07,28,15,112,,12,32,315,40,04,66,082,41,,,,*48
$GLGSV,2,1,08,82,44,274,44,65,09,055,,66,08,105,,79,75,241,47*6B
$GLGSV,2,2,08,81,53,006,,80,38,324,,88,10,047,,78,22,167,*6F
$GNGSA,M,3,04,09,02,17,,,,,,,,,3.4,1.4,3.1*29
$GNGSA,M,3,80,79,81,82,,,,,,,,,3.4,1.4,3.1*25
$GPRMC,174757.00,A,3403.383589,N,11711.794101,W,002.3,273.7,021111,0.0,E,A*27
$GPGGA,174758.00,3403.383661,N,11711.794912,W,1,08,1.4,392.76,M,-32.50,M,,*51
$GPVTG,273.1,T,273.1,M,002.4,N,004.5,K,A*24
$GPGSV,2,1,07,09,56,266,42,02,56,188,47,10,15,126,,17,29,054,34*7B
$GPGSV,2,2,07,28,15,112,,12,32,315,42,04,66,082,46,,,,*4D
$GLGSV,2,1,08,82,44,274,48,65,09,055,,66,08,105,,79,75,241,46*66
$GLGSV,2,2,08,81,53,007,,80,38,324,,88,10,047,,78,22,167,*6E
$GNGSA,M,3,04,09,02,17,,,,,,,,,3.4,1.4,3.1*29
$GNGSA,M,3,80,79,81,82,,,,,,,,,3.4,1.4,3.1*25
$GPRMC,174758.00,A,3403.383661,N,11711.794912,W,002.4,273.1,021111,0.0,E,A*26
$GPGGA,174759.00,3403.383740,N,11711.795673,W,1,08,1.4,392.79,M,-32.50,M,,*54
$GPVTG,273.5,T,273.5,M,002.1,N,004.0,K,A*24
$GPGSV,2,1,07,09,56,266,38,02,56,188,45,10,15,126,,17,29,054,37*77
$GPGSV,2,2,07,28,15,112,,12,32,315,35,04,66,082,48,,,,*43
$GLGSV,2,1,08,82,44,274,47,65,09,055,,66,08,105,,79,75,241,42*6D
$GLGSV,2,2,08,81,53,007,,80,38,324,,88,10,047,,78,22,167,41*6B
$GNGSA,M,3,04,09,02,17,,,,,,,,,3.4,1.4,3.1*29
$GNGSA,M,3,80,79,81,82,,,,,,,,,3.4,1.4,3.1*25
$GPRMC,174759.00,A,3403.383740,N,11711.795673,W,002.1,273.5,021111,0.0,E,A*2D
$GPGGA,174800.00,3403.383808,N,11711.796412,W,1,08,1.4,392.84,M,-32.50,M,,*50
$GPVTG,274.3,T,274.3,M,002.1,N,004.0,K,A*24
$GPGSV,2,1,07,09,56,266,46,02,56,188,45,10,15,126,,17,29,054,*7A
$GPGSV,2,2,07,28,15,112,,12,32,315,34,04,66,082,49,,,,*43
$GLGSV,2,1,08,82,44,274,48,65,09,055,,66,08,105,,79,75,241,*64
$GLGSV,2,2,08,81,53,007,,80,38,324,,88,10,047,,78,22,167,41*6B
$GNGSA,M,3,04,09,02,17,,,,,,,,,3.4,1.4,3.1*29
$GNGSA,M,3,80,79,81,82,,,,,,,,,3.4,1.4,3.1*25
$GPRMC,174800.00,A,3403.383808,N,11711.796412,W,002.1,274.3,021111,0.0,E,A*2A
$GPGGA,174801.00,3403.383873,N,11711.797120,W,1,08,1.4,392.43,M,-32.50,M,,*53
$GPVTG,276.5,T,276.5,M,002.2,N,004.0,K,A*27
$GPGSV,2,1,07,09,56,266,43,02,56,188,42,10,15,126,,17,29,054,*78
$GPGSV,2,2,07,28,15,112,,12,32,315,,04,66,082,49,,,,*44
$GLGSV,2,1,08,82,44,274,47,65,09,055,,66,08,105,,79,75,241,*6B
$GLGSV,2,2,08,81,53,007,46,80,38,324,,88,10,047,,78,22,167,*6C
$GNGSA,M,3,04,09,02,17,,,,,,,,,3.4,1.4,3.1*29
$GNGSA,M,3,80,79,81,82,,,,,,,,,3.4,1.4,3.1*25
$GPRMC,174801.00,A,3403.383873,N,11711.797120,W,002.2,276.5,021111,0.0,E,A*25
$GPGGA,174802.00,3403.384027,N,11711.797918,W,1,08,1.4,392.70,M,-32.50,M,,*5D
$GPVTG,279.9,T,279.9,M,002.4,N,004.5,K,A*24
$GPGSV,2,1,07,09,56,266,47,02,56,188,44,10,15,126,,17,29,054,*7A
$GPGSV,2,2,07,28,15,112,,12,32,315,,04,66,082,48,,,,*45
$GLGSV,2,1,08,82,44,275,43,65,09,054,,66,08,105,,79,75,241,*6F
$GLGSV,2,2,08,81,53,007,44,80,38,324,,88,10,047,,78,22,167,42*68
$GNGSA,M,3,04,09,02,17,,,,,,,,,3.4,1.4,3.1*29
$GNGSA,M,3,80,79,81,82,,,,,,,,,3.4,1.4,3.1*25
$GPRMC,174802.00,A,3403.384027,N,11711.797918,W,002.4,279.9,021111,0.0,E,A*2E
$GPGGA,174803.00,3403.384081,N,11711.798741,W,1,08,1.4,392.79,M,-32.50,M,,*54
$GPVTG,271.9,T,271.9,M,002.5,N,004.6,K,A*26
$GPGSV,2,1,07,09,56,266,48,02,56,188,42,10,15,126,,17,29,054,40*77
$GPGSV,2,2,07,28,15,112,,12,32,315,,04,66,082,50,,,,*4C
$GLGSV,2,1,08,82,44,275,43,65,09,054,,66,08,105,,79,75,241,42*69
$GLGSV,2,2,08,81,53,007,47,80,38,324,,88,10,047,,78,22,167,41*68
$GNGSA,M,3,04,09,02,17,,,,,,,,,3.4,1.4,3.1*29
$GNGSA,M,3,80,79,81,82,,,,,,,,,3.4,1.4,3.1*25
$GPRMC,174803.00,A,3403.384081,N,11711.798741,W,002.5,271.9,021111,0.0,E,A*27
$GPGGA,174804.00,3403.383999,N,11711.799563,W,1,08,1.4,392.63,M,-32.50,M,,*5C
$GPVTG,260.5,T,260.5,M,002.5,N,004.6,K,A*26
$GPGSV,2,1,07,09,56,266,47,02,56,188,,10,15,126,,17,29,054,35*7C
$GPGSV,2,2,07,28,15,112,,12,32,315,39,04,66,082,47,,,,*40
$GLGSV,2,1,08,82,44,275,46,65,09,054,,66,08,105,,79,75,241,39*60
$GLGSV,2,2,08,81,53,007,47,80,38,324,,88,10,047,,78,22,167,*6D
$GNGSA,M,3,04,09,02,17,,,,,,,,,3.4,1.4,3.1*29
$GNGSA,M,3,80,79,81,82,,,,,,,,,3.4,1.4,3.1*25
$GPRMC,174804.00,A,3403.383999,N,11711.799563,W,002.5,260.5,021111,0.0,E,A*28
$GPGGA,174805.00,3403.384029,N,11711.800393,W,1,08,1.4,392.80,M,-32.50,M,,*53
$GPVTG,259.5,T,259.5,M,002.4,N,004.4,K,A*25
$GPGSV,2,1,07,09,56,266,46,02,56,188,41,10,15,126,,17,29,054,*7E
$GPGSV,2,2,07,28,15,112,,12,32,315,38,04,66,082,48,,,,*4E
$GLGSV,2,1,08,82,44,275,43,65,09,054,,66,08,105,,79,75,241,40*6B
$GLGSV,2,2,08,81,53,007,46,80,38,324,,88,10,047,,78,22,167,*6C
$GNGSA,M,3,04,09,02,17,,,,,,,,,3.4,1.4,3.1*29
$GNGSA,M,3,80,79,81,82,,,,,,,,,3.4,1.4,3.1*25
$GPRMC,174805.00,A,3403.384029,N,11711.800393,W,002.4,259.5,021111,0.0,E,A*21
$GPGGA,174806.00,3403.384052,N,11711.801201,W,1,08,1.4,392.97,M,-32.50,M,,*51
$GPVTG,264.1,T,264.1,M,002.2,N,004.1,K,A*26
$GPGSV,2,1,07,09,56,266,46,02,56,188,43,10,15,126,,17,29,054,36*79
$GPGSV,2,2,07,28,15,112,,12,32,315,38,04,66,082,46,,,,*40
$GLGSV,2,1,08,82,44,275,43,65,09,054,,66,08,105,,79,75,241,44*6F
$GLGSV,2,2,08,81,53,007,43,80,38,324,,88,10,047,,78,22,167,*69
$GNGSA,M,3,04,09,02,17,,,,,,,,,3.4,1.4,3.1*29
$GNGSA,M,3,80,79,81,82,,,,,,,,,3.4,1.4,3.1*25
$GPRMC,174806.00,A,3403.384052,N,11711.801201,W,002.2,264.1,021111,0.0,E,A*29
$GPGGA,174807.00,3403.383990,N,11711.802000,W,1,08,1.4,392.98,M,-32.50,M,,*5F
$GPVTG,258.0,T,258.0,M,002.3,N,004.3,K,A*25
$GPGSV,2,1,07,09,56,266,46,02,56,188,40,10,15,126,,17,29,054,39*75
$GPGSV,2,2,07,28,15,112,,12,32,315,40,04,66,082,47,,,,*4E
$GLGSV,2,1,08,82,44,275,40,65,09,054,,66,08,105,,79,75,241,44*6C
$GLGSV,2,2,08,81,53,007,41,80,38,324,,88,10,047,,78,22,167,*6B
$GNGSA,M,3,04,09,02,17,,,,,,,,,3.4,1.4,3.1*29
$GNGSA,M,3,80,79,81,82,,,,,,,,,3.4,1.4,3.1*25
$GPRMC,174807.00,A,3403.383990,N,11711.802000,W,002.3,258.0,021111,0.0,E,A*27
$GPGGA,174808.00,3403.383754,N,11711.802743,W,1,08,1.4,392.77,M,-32.50,M,,*57
$GPVTG,240.6,T,240.6,M,002.3,N,004.2,K,A*24
$GPGSV,2,1,07,09,56,266,42,02,56,188,41,10,15,126,,17,29,054,*7A
$GPGSV,2,2,07,28,15,112,,12,32,315,45,04,66,082,45,,,,*49
$GLGSV,2,1,08,82,44,275,36,65,09,054,,66,08,105,,79,75,241,46*6F
$GLGSV,2,2,08,81,53,007,39,80,38,324,,88,10,047,,78,22,167,*64
$GNGSA,M,3,04,09,02,17,,,,,,,,,3.4,1.4,3.1*29
$GNGSA,M,3,80,79,81,82,,,,,,,,,3.4,1.4,3.1*25
$GPRMC,174808.00,A,3403.383754,N,11711.802743,W,002.3,240.6,021111,0.0,E,A*21
$GPGGA,174809.00,3403.383410,N,11711.803444,W,1,08,1.4,392.96,M,-32.50,M,,*5F
$GPVTG,227.9,T,227.9,M,002.4,N,004.4,K,A*25
$GPGSV,2,1,07,09,56,266,44,02,56,188,43,10,15,126,,17,29,054,36*7B
$GPGSV,2,2,07,28,15,112,,12,32,315,41,04,66,082,43,,,,*4B
$GLGSV,2,1,08,82,44,275,37,65,09,054,,66,08,105,,79,75,241,46*6E
$GLGSV,2,2,08,81,53,007,40,80,38,324,,88,10,047,,78,22,167,*6A
$GNGSA,M,3,04,09,02,17,,,,,,,,,3.4,1.4,3.1*29
$GNGSA,M,3,80,79,81,82,,,,,,,,,3.4,1.4,3.1*25
$GPRMC,174809.00,A,3403.383410,N,11711.803444,W,002.4,227.9,021111,0.0,E,A*2F
$GPGGA,174810.00,3403.382891,N,11711.803950,W,1,08,1.4,393.22,M,-32.50,M,,*55
$GPVTG,209.2,T,209.2,M,002.6,N,004.9,K,A*2A
$GPGSV,2,1,07,09,56,266,45,02,56,188,43,10,15,126,,17,29,054,*7F
$GPGSV,2,2,07,28,15,112,,12,32,315,38,04,66,081,36,,,,*44
$GLGSV,2,1,08,82,44,275,,65,09,054,,66,08,105,,79,75,241,46*6A
$GLGSV,2,2,08,81,53,007,43,80,38,324,,88,10,047,,78,22,167,*69
$GNGSA,M,3,04,09,02,17,,,,,,,,,3.4,1.4,3.1*29
$GNGSA,M,3,80,79,81,82,,,,,,,,,3.4,1.4,3.1*25
$GPRMC,174810.00,A,3403.382891,N,11711.803950,W,002.6,209.2,021111,0.0,E,A*2E
$GPGGA,174811.00,3403.382239,N,11711.804463,W,1,08,1.4,393.34,M,-32.50,M,,*51
$GPVTG,203.7,T,203.7,M,002.8,N,005.2,K,A*2E
$GPGSV,2,1,07,09,56,266,47,02,56,188,45,10,15,126,,17,29,054,*7B
$GPGSV,2,2,07,28,15,112,,12,32,315,42,04,66,081,,,,,*4C
$GLGSV,2,1,08,82,44,275,,65,09,054,,66,08,105,,79,75,241,45*69
$GLGSV,2,2,08,81,53,007,43,80,38,324,,88,10,047,,78,22,167,*69
$GNGSA,M,3,04,09,02,17,,,,,,,,,3.4,1.4,3.1*29
$GNGSA,M,3,80,79,81,82,,,,,,,,,3.4,1.4,3.1*25
$GPRMC,174811.00,A,3403.382239,N,11711.804463,W,002.8,203.7,021111,0.0,E,A*2C
$GPGGA,174812.00,3403.381515,N,11711.804747,W,1,08,1.4,393.71,M,-32.50,M,,*5C
$GPVTG,188.0,T,188.0,M,003.0,N,005.6,K,A*23
$GPGSV,2,1,07,09,56,266,47,02,57,188,44,10,15,126,,17,29,054,*7B
$GPGSV,2,2,07,28,15,112,,12,33,315,44,04,66,081,,,,,*4B
$GLGSV,2,1,08,82,44,275,,65,09,054,,66,08,105,,79,75,241,46*6A
$GLGSV,2,2,08,81,53,007,43,80,38,324,39,88,10,047,,78,22,167,*63
$GNGSA,M,3,04,09,02,17,,,,,,,,,3.4,1.4,3.1*29
$GNGSA,M,3,80,79,81,82,,,,,,,,,3.4,1.4,3.1*25
$GPRMC,174812.00,A,3403.381515,N,11711.804747,W,003.0,188.0,021111,0.0,E,A*2E
$GPGGA,174813.00,3403.380674,N,11711.805030,W,1,08,1.4,393.53,M,-32.50,M,,*5E
$GPVTG,183.4,T,183.4,M,003.1,N,005.7,K,A*23
$GPGSV,2,1,07,09,56,266,46,02,57,188,44,10,15,126,,17,29,054,34*7D
$GPGSV,2,2,07,28,15,112,,12,33,315,43,04,66,081,,,,,*4C
$GLGSV,2,1,08,82,44,275,45,65,09,054,,66,08,105,,79,75,241,44*69
$GLGSV,2,2,08,81,53,007,45,80,38,324,47,88,10,047,,78,22,167,*6C
$GNGSA,M,3,04,09,02,17,,,,,,,,,3.4,1.4,3.1*29
$GNGSA,M,3,80,79,81,82,,,,,,,,,3.4,1.4,3.1*25
$GPRMC,174813.00,A,3403.380674,N,11711.805030,W,003.1,183.4,021111,0.0,E,A*22
$GPGGA,174814.00,3403.379869,N,11711.805192,W,1,08,1.4,393.47,M,-32.50,M,,*51
$GPVTG,184.1,T,184.1,M,003.1,N,005.7,K,A*23
$GPGSV,2,1,07,09,56,266,47,02,57,188,44,10,15,125,,17,29,054,*78
$GPGSV,2,2,07,28,15,112,,12,33,315,41,04,66,081,40,,,,*4A
$GLGSV,2,1,08,82,44,275,41,65,09,054,,66,08,105,,79,75,241,43*6A
$GLGSV,2,2,08,81,53,007,44,80,38,324,46,88,10,047,,78,22,167,*6C
$GNGSA,M,3,04,09,02,17,,,,,,,,,3.4,1.4,3.1*29
$GNGSA,M,3,80,79,81,82,,,,,,,,,3.4,1.4,3.1*25
$GPRMC,174814.00,A,3403.379869,N,11711.805192,W,003.1,184.1,021111,0.0,E,A*2A
$GPGGA,174815.00,3403.379126,N,11711.805343,W,1,08,1.4,393.62,M,-32.50,M,,*5B
$GPVTG,184.0,T,184.0,M,002.8,N,005.2,K,A*2E
$GPGSV,2,1,07,09,56,266,41,02,57,188,43,10,15,125,,17,29,054,*79
$GPGSV,2,2,07,28,15,112,,12,33,315,39,04,66,081,42,,,,*47
$GLGSV,2,1,08,82,44,275,43,65,09,054,,66,08,105,,79,75,241,45*6E
$GLGSV,2,2,08,81,53,007,44,80,38,324,47,88,10,047,,78,22,167,*6D
$GNGSA,M,3,04,09,02,17,,,,,,,,,3.4,1.4,3.1*29
$GNGSA,M,3,80,79,81,82,,,,,,,,,3.4,1.4,3.1*25
$GPRMC,174815.00,A,3403.379126,N,11711.805343,W,002.8,184.0,021111,0.0,E,A*2E
$GPGGA,174816.00,3403.378446,N,11711.805452,W,1,08,1.4,393.71,M,-32.50,M,,*5F
$GPVTG,185.4,T,185.4,M,002.6,N,004.8,K,A*2B
$GPGSV,2,1,07,09,56,266,43,02,57,188,45,10,15,125,,17,29,054,*7D
$GPGSV,2,2,07,28,15,112,,12,33,315,42,04,66,081,40,,,,*49
$GLGSV,2,1,08,82,44,275,,65,09,054,,66,08,105,,79,75,241,44*68
$GLGSV,2,2,08,81,53,007,44,80,38,324,45,88,10,047,,78,22,167,*6F
$GNGSA,M,3,04,09,02,17,,,,,,,,,3.4,1.4,3.1*29
$GNGSA,M,3,80,79,81,82,,,,,,,,,3.4,1.4,3.1*25
$GPRMC,174816.00,A,3403.378446,N,11711.805452,W,002.6,185.4,021111,0.0,E,A*23
$GPGGA,174817.00,3403.377828,N,11711.805760,W,1,08,1.4,393.89,M,-32.50,M,,*50
$GPVTG,195.2,T,195.2,M,002.4,N,004.4,K,A*25
$GPGSV,2,1,07,09,56,266,40,02,57,188,45,10,15,125,,17,29,054,32*7F
$GPGSV,2,2,07,28,15,112,,12,33,315,38,04,66,081,42,,,,*46
$GLGSV,2,1,08,82,44,275,,65,09,054,,66,08,105,,79,75,241,44*68
$GLGSV,2,2,08,81,53,007,44,80,38,324,43,88,10,047,,78,22,167,*69
$GNGSA,M,3,04,09,02,17,,,,,,,,,3.4,1.4,3.1*29
$GNGSA,M,3,80,79,81,82,,,,,,,,,3.4,1.4,3.1*25
$GPRMC,174817.00,A,3403.377828,N,11711.805760,W,002.4,195.2,021111,0.0,E,A*2E
$GPGGA,174818.00,3403.377303,N,11711.806083,W,1,08,1.4,393.99,M,-32.50,M,,*55
$GPVTG,205.8,T,205.8,M,002.2,N,004.1,K,A*26
$GPGSV,2,1,07,09,56,266,38,02,57,188,43,10,15,125,,17,29,054,*77
$GPGSV,2,2,07,28,15,112,,12,33,315,35,04,66,081,42,,,,*4B
$GLGSV,2,1,08,82,44,275,,65,09,054,,66,08,105,,79,75,240,44*69
$GLGSV,2,2,08,81,53,007,43,80,38,324,45,88,10,047,,78,22,167,*68
$GNGSA,M,3,04,09,02,17,,,,,,,,,3.4,1.4,3.1*29
$GNGSA,M,3,80,79,81,82,,,,,,,,,3.4,1.4,3.1*25
$GPRMC,174818.00,A,3403.377303,N,11711.806083,W,002.2,205.8,021111,0.0,E,A*2C
$GPGGA,174819.00,3403.376575,N,11711.806312,W,1,08,1.4,393.65,M,-32.50,M,,*5A
$GPVTG,184.4,T,184.4,M,002.7,N,005.0,K,A*23
$GPGSV,2,1,07,09,56,266,44,02,57,188,46,10,15,125,,17,29,054,38*72
$GPGSV,2,2,07,28,15,112,,12,33,315,,04,66,081,46,,,,*49
$GLGSV,2,1,08,82,44,275,,65,09,054,,66,08,105,,79,75,240,47*6A
$GLGSV,2,2,08,81,53,007,45,80,38,324,39,88,10,047,,78,22,167,37*61
$GNGSA,M,3,04,09,02,17,,,,,,,,,3.4,1.4,3.1*29
$GNGSA,M,3,80,79,81,82,,,,,,,,,3.4,1.4,3.1*25
$GPRMC,174819.00,A,3403.376575,N,11711.806312,W,002.7,184.4,021111,0.0,E,A*23
$GPGGA,174820.00,3403.375977,N,11711.806377,W,1,08,1.4,393.51,M,-32.50,M,,*59
$GPVTG,179.9,T,179.9,M,002.1,N,004.0,K,A*24
$GPGSV,2,1,07,09,56,266,45,02,57,188,47,10,15,125,,17,29,054,*79
$GPGSV,2,2,07,28,15,112,,12,33,315,,04,66,081,48,,,,*47
$GLGSV,2,1,08,82,44,275,,65,09,054,,66,08,105,,79,74,240,47*6B
$GLGSV,2,2,08,81,53,007,46,80,38,324,,88,10,047,,78,22,167,43*6B
$GNGSA,M,3,04,09,02,17,,,,,,,,,3.4,1.4,3.1*29
$GNGSA,M,3,80,79,81,82,,,,,,,,,3.4,1.4,3.1*25
$GPRMC,174820.00,A,3403.375977,N,11711.806377,W,002.1,179.9,021111,0.0,E,A*2E
$GPGGA,174821.00,3403.375307,N,11711.806445,W,1,08,1.4,393.92,M,-32.50,M,,*5C
$GPVTG,173.3,T,173.3,M,002.6,N,004.9,K,A*2A
$GPGSV,2,1,07,09,56,266,44,02,57,188,47,10,15,125,,17,29,054,37*7C
$GPGSV,2,2,07,28,15,112,,12,33,315,,04,66,081,49,,,,*46
$GLGSV,2,1,08,82,44,275,,65,09,054,,66,08,105,,79,74,240,47*6B
$GLGSV,2,2,08,81,53,007,44,80,38,324,,88,10,047,,78,22,167,45*6F
$GNGSA,M,3,04,09,02,17,,,,,,,,,3.4,1.4,3.1*29
$GNGSA,M,3,80,79,81,82,,,,,,,,,3.4,1.4,3.1*25
$GPRMC,174821.00,A,3403.375307,N,11711.806445,W,002.6,173.3,021111,0.0,E,A*23
$GPGGA,174822.00,3403.374634,N,11711.806505,W,1,08,1.4,393.84,M,-32.50,M,,*59
$GPVTG,181.3,T,181.3,M,002.3,N,004.2,K,A*24
$GPGSV,2,1,07,09,56,266,46,02,57,188,47,10,15,125,,17,29,054,38*71
$GPGSV,2,2,07,28,15,112,,12,33,315,,04,66,081,47,,,,*48
$GLGSV,2,1,08,82,44,275,,65,09,054,,66,08,105,,79,74,240,46*6A
$GLGSV,2,2,08,81,53,007,45,80,38,324,,88,10,047,,78,22,167,40*6B
$GNGSA,M,3,04,09,02,17,,,,,,,,,3.4,1.4,3.1*29
$GNGSA,M,3,80,79,81,82,,,,,,,,,3.4,1.4,3.1*25
$GPRMC,174822.00,A,3403.374634,N,11711.806505,W,002.3,181.3,021111,0.0,E,A*29
$GPGGA,174823.00,3403.374025,N,11711.806481,W,1,08,1.4,393.95,M,-32.50,M,,*53
$GPVTG,177.9,T,177.9,M,002.3,N,004.2,K,A*24
$GPGSV,2,1,07,09,56,266,47,02,57,188,46,10,15,125,,17,29,054,*7A
$GPGSV,2,2,07,28,15,112,,12,33,315,,04,66,081,45,,,,*4A
$GLGSV,2,1,08,82,44,275,45,65,09,054,,66,08,105,,79,74,240,47*6A
$GLGSV,2,2,08,81,53,007,42,80,38,324,,88,10,047,,78,22,167,42*6E
$GNGSA,M,3,04,09,02,17,,,,,,,,,3.4,1.4,3.1*29
$GNGSA,M,3,80,79,81,82,,,,,,,,,3.4,1.4,3.1*25
$GPRMC,174823.00,A,3403.374025,N,11711.806481,W,002.3,177.9,021111,0.0,E,A*20
$GPGGA,174824.00,3403.373410,N,11711.806567,W,1,08,1.4,393.67,M,-32.50,M,,*55
$GPVTG,191.1,T,191.1,M,002.2,N,004.1,K,A*26
$GPGSV,2,1,07,09,56,266,48,02,57,188,45,10,15,125,,17,29,054,*76
$GPGSV,2,2,07,28,15,112,,12,33,315,,04,66,081,46,,,,*49
$GLGSV,2,1,08,82,44,275,42,65,09,054,,66,08,105,,79,74,240,46*6C
$GLGSV,2,2,08,81,53,007,48,80,38,324,,88,10,047,,78,22,167,43*65
$GNGSA,M,3,04,09,02,17,,,,,,,,,3.4,1.4,3.1*29
$GNGSA,M,3,80,79,81,82,,,,,,,,,3.4,1.4,3.1*25
$GPRMC,174824.00,A,3403.373410,N,11711.806567,W,002.2,191.1,021111,0.0,E,A*2A
$GPGGA,174825.00,3403.372787,N,11711.806604,W,1,08,1.4,393.20,M,-32.50,M,,*5D
$GPVTG,182.6,T,182.6,M,002.2,N,004.1,K,A*26
$GPGSV,2,1,07,09,56,266,46,02,57,188,44,10,15,125,,17,29,054,*79
$GPGSV,2,2,07,28,15,112,,12,33,315,34,04,66,081,46,,,,*4E
$GLGSV,2,1,08,82,44,275,40,65,09,054,,66,08,105,,79,74,240,46*6E
$GLGSV,2,2,08,81,53,007,46,80,38,324,,88,10,047,,78,22,167,43*6B
$GNGSA,M,3,04,09,02,17,,,,,,,,,3.4,1.4,3.1*29
$GNGSA,M,3,80,79,81,82,,,,,,,,,3.4,1.4,3.1*25
$GPRMC,174825.00,A,3403.372787,N,11711.806604,W,002.2,182.6,021111,0.0,E,A*24
$GPGGA,174826.00,3403.372093,N,11711.806575,W,1,08,1.4,392.11,M,-32.50,M,,*5A
$GPVTG,180.7,T,180.7,M,002.3,N,004.3,K,A*25
$GPGSV,2,1,07,09,56,266,42,02,57,188,46,10,15,125,,17,29,054,*7F
$GPGSV,2,2,07,28,15,113,,12,33,315,35,04,66,081,46,,,,*4E
$GLGSV,2,1,08,82,44,275,40,65,09,054,,66,08,105,,79,74,240,45*6D
$GLGSV,2,2,08,81,53,007,47,80,38,324,,88,10,047,,78,22,167,45*6C
$GNGSA,M,3,04,09,02,17,,,,,,,,,3.4,1.4,3.1*29
$GNGSA,M,3,80,79,81,82,,,,,,,,,3.4,1.4,3.1*25
$GPRMC,174826.00,A,3403.372093,N,11711.806575,W,002.3,180.7,021111,0.0,E,A*22
$GPGGA,174827.00,3403.371418,N,11711.806691,W,1,08,1.4,392.42,M,-32.50,M,,*50
$GPVTG,180.4,T,180.4,M,002.6,N,004.9,K,A*2A
$GPGSV,2,1,07,09,56,266,46,02,57,188,47,10,15,125,,17,29,054,40*7E
$GPGSV,2,2,07,28,15,113,,12,33,315,,04,66,081,48,,,,*46
$GLGSV,2,1,08,82,44,275,40,65,09,054,,66,08,105,,79,74,240,44*6C
$GLGSV,2,2,08,81,53,007,44,80,38,324,42,88,10,047,,78,22,167,46*6A
$GNGSA,M,3,04,09,02,17,,,,,,,,,3.4,1.4,3.1*29
$GNGSA,M,3,80,79,81,82,,,,,,,,,3.4,1.4,3.1*25
$GPRMC,174827.00,A,3403.371418,N,11711.806691,W,002.6,180.4,021111,0.0,E,A*28
$GPGGA,174828.00,3403.370661,N,11711.806708,W,1,08,1.4,392.26,M,-32.50,M,,*51
$GPVTG,180.0,T,180.0,M,002.8,N,005.2,K,A*2E
$GPGSV,2,1,07,09,56,266,45,02,57,188,47,10,15,125,,17,29,054,36*7C
$GPGSV,2,2,07,28,15,113,,12,33,315,,04,66,081,48,,,,*46
$GLGSV,2,1,08,82,44,275,,65,09,054,,66,08,105,,79,74,240,45*69
$GLGSV,2,2,08,81,53,007,45,80,38,324,44,88,10,047,,78,22,167,43*68
$GNGSA,M,3,04,09,02,17,,,,,,,,,3.4,1.4,3.1*29
$GNGSA,M,3,80,79,81,82,,,,,,,,,3.4,1.4,3.1*25
$GPRMC,174828.00,A,3403.370661,N,11711.806708,W,002.8,180.0,021111,0.0,E,A*21
$GPGGA,174829.00,3403.369893,N,11711.806787,W,1,08,1.4,392.26,M,-32.50,M,,*5C
$GPVTG,178.5,T,178.5,M,002.9,N,005.3,K,A*2E
$GPGSV,2,1,07,09,56,266,41,02,57,188,47,10,15,125,,17,29,054,41*78
$GPGSV,2,2,07,28,15,113,,12,33,315,,04,66,081,48,,,,*46
$GLGSV,2,1,08,82,44,275,39,65,09,054,,66,08,105,,79,74,240,47*61
$GLGSV,2,2,08,81,53,007,43,80,38,324,42,88,10,047,,78,22,167,42*69
$GNGSA,M,3,04,09,02,17,,,,,,,,,3.4,1.4,3.1*29
$GNGSA,M,3,80,79,81,82,,,,,,,,,3.4,1.4,3.1*25
$GPRMC,174829.00,A,3403.369893,N,11711.806787,W,002.9,178.5,021111,0.0,E,A*2F
$GPGGA,174830.00,3403.369132,N,11711.806859,W,1,08,1.4,392.35,M,-32.50,M,,*58
$GPVTG,180.1,T,180.1,M,002.9,N,005.4,K,A*29
$GPGSV,2,1,07,09,56,266,43,02,57,188,47,10,15,125,,17,29,054,36*7A
$GPGSV,2,2,07,28,15,113,,12,33,315,,04,66,081,47,,,,*49
$GLGSV,2,1,08,82,44,275,,65,09,054,,66,08,105,,79,74,240,48*64
$GLGSV,2,2,08,81,53,007,43,80,38,324,44,88,10,047,,78,22,167,41*6C
$GNGSA,M,3,04,09,02,17,,,,,,,,,3.4,1.4,3.1*29
$GNGSA,M,3,80,79,81,82,,,,,,,,,3.4,1.4,3.1*25
$GPRMC,174830.00,A,3403.369132,N,11711.806859,W,002.9,180.1,021111,0.0,E,A*2A
$GPGGA,174831.00,3403.368338,N,11711.807018,W,1,08,1.4,392.32,M,-32.50,M,,*5B
$GPVTG,186.8,T,186.8,M,003.0,N,005.5,K,A*20
$GPGSV,2,1,07,09,56,266,45,02,57,188,48,10,15,125,,17,29,054,40*72
$GPGSV,2,2,07,28,15,113,,12,33,315,,04,66,081,49,,,,*47
$GLGSV,2,1,08,82,44,275,,65,09,054,,66,08,105,,79,74,240,47*6B
$GLGSV,2,2,08,81,53,007,43,80,38,324,47,88,10,047,,78,22,167,*6A
$GNGSA,M,3,04,09,02,17,,,,,,,,,3.4,1.4,3.1*29
$GNGSA,M,3,80,79,81,82,,,,,,,,,3.4,1.4,3.1*25
$GPRMC,174831.00,A,3403.368338,N,11711.807018,W,003.0,186.8,021111,0.0,E,A*29
$GPGGA,174832.00,3403.367569,N,11711.807216,W,1,08,1.4,392.68,M,-32.50,M,,*56
$GPVTG,186.0,T,186.0,M,003.2,N,005.9,K,A*2E
$GPGSV,2,1,07,09,56,266,47,02,57,188,46,10,15,125,34,17,29,054,43*7A
$GPGSV,2,2,07,28,15,113,,12,33,315,,04,66,081,47,,,,*49
$GLGSV,2,1,08,82,44,275,,65,09,054,,66,08,105,,79,74,240,46*6A
$GLGSV,2,2,08,81,53,007,47,80,38,324,47,88,10,047,,78,22,167,*6E
$GNGSA,M,3,04,09,02,17,,,,,,,,,3.4,1.4,3.1*29
$GNGSA,M,3,80,79,81,82,,,,,,,,,3.4,1.4,3.1*25
$GPRMC,174832.00,A,3403.367569,N,11711.807216,W,003.2,186.0,021111,0.0,E,A*21
$GPGGA,174833.00,3403.366748,N,11711.807427,W,1,08,1.4,392.63,M,-32.50,M,,*58
$GPVTG,189.8,T,189.8,M,003.3,N,006.1,K,A*24
$GPGSV,2,1,07,09,56,266,47,02,57,188,45,10,15,125,,17,29,054,43*7E
$GPGSV,2,2,07,28,15,113,,12,33,315,,04,66,081,48,,,,*46
$GLGSV,2,1,08,82,44,275,45,65,09,054,,66,08,105,,79,74,240,46*6B
$GLGSV,2,2,08,81,53,007,48,80,38,324,44,88,10,047,,78,22,167,*62
$GNGSA,M,3,04,09,02,17,,,,,,,,,3.4,1.4,3.1*29
$GNGSA,M,3,80,79,81,82,,,,,,,,,3.4,1.4,3.1*25
$GPRMC,174833.00,A,3403.366748,N,11711.807427,W,003.3,189.8,021111,0.0,E,A*22
$GPGGA,174834.00,3403.365998,N,11711.807636,W,1,08,1.4,392.45,M,-32.50,M,,*59
$GPVTG,190.5,T,190.5,M,002.8,N,005.1,K,A*2D
$GPGSV,2,1,07,09,55,266,46,02,57,188,45,10,15,125,,17,29,054,42*7D
$GPGSV,2,2,07,28,15,113,,12,33,315,33,04,66,081,45,,,,*4B
$GLGSV,2,1,08,82,44,275,41,65,09,054,,66,08,105,,79,74,240,46*6F
$GLGSV,2,2,08,81,53,007,48,80,38,324,48,88,10,047,,78,22,167,*6E
$GNGSA,M,3,04,09,02,17,,,,,,,,,3.4,1.4,3.1*29
$GNGSA,M,3,80,79,81,82,,,,,,,,,3.4,1.4,3.1*25
$GPRMC,174834.00,A,3403.365998,N,11711.807636,W,002.8,190.5,021111,0.0,E,A*28
$GPGGA,174835.00,3403.365498,N,11711.807633,W,1,08,1.4,392.38,M,-32.50,M,,*5A
$GPVTG,162.5,T,162.5,M,001.6,N,002.9,K,A*2F
$GPGSV,2,1,07,09,55,266,42,02,57,188,44,10,15,125,,17,29,054,47*7D
$GPGSV,2,2,07,28,15,113,38,12,33,315,33,04,66,081,48,,,,*4D
$GLGSV,2,1,08,82,44,275,41,65,09,054,,66,08,105,,79,74,240,43*6A
$GLGSV,2,2,08,81,53,007,47,80,38,324,42,88,10,047,,78,22,167,*6B
$GNGSA,M,3,04,09,02,17,,,,,,,,,3.4,1.4,3.1*29
$GNGSA,M,3,80,79,81,82,,,,,,,,,3.4,1.4,3.1*25
$GPRMC,174835.00,A,3403.365498,N,11711.807633,W,001.6,162.5,021111,0.0,E,A*21
$GPGGA,174836.00,3403.364999,N,11711.807588,W,1,08,1.4,392.24,M,-32.50,M,,*5A
$GPVTG,185.3,T,185.3,M,002.1,N,003.8,K,A*2B
$GPGSV,2,1,07,09,55,266,39,02,57,188,44,10,15,125,41,17,29,054,45*76
$GPGSV,2,2,07,28,15,113,46,12,33,315,,04,66,081,46,,,,*4A
$GLGSV,2,1,08,82,44,275,,65,09,054,,66,08,105,,79,74,240,40*6C
$GLGSV,2,2,08,81,53,007,45,80,38,324,44,88,10,047,,78,22,167,*6F
$GNGSA,M,3,04,09,02,17,,,,,,,,,3.4,1.4,3.1*29
$GNGSA,M,3,80,79,81,82,,,,,,,,,3.4,1.4,3.1*25
$GPRMC,174836.00,A,3403.364999,N,11711.807588,W,002.1,185.3,021111,0.0,E,A*27
$GPGGA,174837.00,3403.364286,N,11711.807795,W,1,08,1.4,391.94,M,-32.50,M,,*58
$GPVTG,199.5,T,199.5,M,003.1,N,005.7,K,A*23
$GPGSV,2,1,07,09,55,266,40,02,57,188,41,10,15,125,38,17,29,054,48*7E
$GPGSV,2,2,07,28,15,113,37,12,33,315,,04,66,081,46,,,,*4C
$GLGSV,2,1,08,82,44,275,,65,09,054,,66,08,105,,79,74,240,42*6E
$GLGSV,2,2,08,81,53,007,46,80,38,324,44,88,10,047,,78,22,167,*6C
$GNGSA,M,3,04,09,02,17,,,,,,,,,3.4,1.4,3.1*29
$GNGSA,M,3,80,79,81,82,,,,,,,,,3.4,1.4,3.1*25
$GPRMC,174837.00,A,3403.364286,N,11711.807795,W,003.1,199.5,021111,0.0,E,A*27
$GPGGA,174838.00,3403.363597,N,11711.808083,W,1,08,1.4,392.09,M,-32.50,M,,*5F
$GPVTG,199.6,T,199.6,M,003.1,N,005.7,K,A*23
$GPGSV,2,1,07,09,55,266,46,02,57,188,46,10,15,125,,17,29,054,45*79
$GPGSV,2,2,07,28,15,113,,12,33,315,,04,66,081,48,,,,*46
$GLGSV,2,1,08,82,44,275,,65,09,054,,66,08,105,,79,74,240,46*6A
$GLGSV,2,2,08,81,52,007,49,80,38,324,46,88,10,047,,78,22,167,*60
$GNGSA,M,3,04,09,02,17,,,,,,,,,3.4,1.4,3.1*29
$GNGSA,M,3,80,79,81,82,,,,,,,,,3.4,1.4,3.1*25
$GPRMC,174838.00,A,3403.363597,N,11711.808083,W,003.1,199.6,021111,0.0,E,A*24
$GPGGA,174839.00,3403.362900,N,11711.808250,W,1,08,1.4,391.99,M,-32.50,M,,*5B
$GPVTG,192.5,T,192.5,M,002.4,N,004.5,K,A*24
$GPGSV,2,1,07,09,55,266,46,02,57,188,46,10,15,125,32,17,29,054,45*78
$GPGSV,2,2,07,28,15,113,,12,33,315,,04,66,081,49,,,,*47
$GLGSV,2,1,08,82,44,275,,65,09,054,,66,08,105,,79,74,240,47*6B
$GLGSV,2,2,08,81,52,007,48,80,38,324,46,88,10,047,,78,22,167,*61
$GNGSA,M,3,04,09,02,17,,,,,,,,,3.4,1.4,3.1*29
$GNGSA,M,3,80,79,81,82,,,,,,,,,3.4,1.4,3.1*25
$GPRMC,174839.00,A,3403.362900,N,11711.808250,W,002.4,192.5,021111,0.0,E,A*26
$GPGGA,174840.00,3403.362292,N,11711.808438,W,1,08,1.4,391.86,M,-32.50,M,,*53
$GPVTG,194.3,T,194.3,M,002.0,N,003.6,K,A*24
$GPGSV,2,1,07,09,55,266,39,02,57,188,45,10,15,125,,17,29,054,44*73
$GPGSV,2,2,07,28,15,113,,12,33,315,39,04,66,081,47,,,,*43
$GLGSV,2,1,08,82,44,275,,65,09,054,,66,08,105,,79,74,240,47*6B
$GLGSV,2,2,08,81,52,007,47,80,38,324,47,88,10,047,,78,22,167,*6F
$GNGSA,M,3,04,09,02,17,,,,,,,,,3.4,1.4,3.1*29
$GNGSA,M,3,80,79,81,82,,,,,,,,,3.4,1.4,3.1*25
$GPRMC,174840.00,A,3403.362292,N,11711.808438,W,002.0,194.3,021111,0.0,E,A*24
$GPGGA,174841.00,3403.361744,N,11711.808527,W,1,08,1.4,392.19,M,-32.50,M,,*55
$GPVTG,190.0,T,190.0,M,002.0,N,003.7,K,A*25
$GPGSV,2,1,07,09,55,266,44,02,57,188,46,10,15,125,,17,29,054,39*70
$GPGSV,2,2,07,28,15,113,,12,33,315,35,04,66,081,44,,,,*4C
$GLGSV,2,1,08,82,44,275,,65,09,054,,66,08,105,,79,74,240,46*6A
$GLGSV,2,2,08,81,52,007,47,80,38,324,46,88,10,047,,78,22,167,*6E
$GNGSA,M,3,04,09,02,17,,,,,,,,,3.4,1.4,3.1*29
$GNGSA,M,3,80,79,81,82,,,,,,,,,3.4,1.4,3.1*25
$GPRMC,174841.00,A,3403.361744,N,11711.808527,W,002.0,190.0,021111,0.0,E,A*20
$GPGGA,174842.00,3403.361147,N,11711.808631,W,1,08,1.4,392.30,M,-32.50,M,,*5C
$GPVTG,188.6,T,188.6,M,002.1,N,004.0,K,A*24
$GPGSV,2,1,07,09,55,266,41,02,57,188,44,10,15,125,,17,29,054,38*76
$GPGSV,2,2,07,28,15,113,,12,33,315,,04,66,081,45,,,,*4B
$GLGSV,2,1,08,82,44,275,,65,09,054,,66,08,105,,79,74,240,44*68
$GLGSV,2,2,08,81,52,007,46,80,38,324,48,88,10,047,,78,22,167,*61
$GNGSA,M,3,04,09,02,17,,,,,,,,,3.4,1.4,3.1*29
$GNGSA,M,3,80,79,81,82,,,,,,,,,3.4,1.4,3.1*25
$GPRMC,174842.00,A,3403.361147,N,11711.808631,W,002.1,188.6,021111,0.0,E,A*2C
$GPGGA,174843.00,3403.360499,N,11711.808617,W,1,08,1.4,392.27,M,-32.50,M,,*58
$GPVTG,175.7,T,175.7,M,002.4,N,004.4,K,A*25
$GPGSV,2,1,07,09,55,266,43,02,57,188,47,10,15,125,,17,29,054,37*78
$GPGSV,2,2,07,28,15,113,,12,33,315,36,04,66,081,48,,,,*43
$GLGSV,2,1,08,82,44,275,,65,09,054,,66,08,105,,79,74,240,48*64
$GLGSV,2,2,08,81,52,007,47,80,38,324,44,88,10,047,,78,22,167,*6C
$GNGSA,M,3,04,09,02,17,,,,,,,,,3.4,1.4,3.1*29
$GNGSA,M,3,80,79,81,82,,,,,,,,,3.4,1.4,3.1*25
$GPRMC,174843.00,A,3403.360499,N,11711.808617,W,002.4,175.7,021111,0.0,E,A*28
$GPGGA,174844.00,3403.359789,N,11711.808595,W,1,08,1.4,392.18,M,-32.50,M,,*52
$GPVTG,177.2,T,177.2,M,002.6,N,004.9,K,A*2A
$GPGSV,2,1,07,09,55,266,42,02,57,188,47,10,15,125,,17,29,054,38*76
$GPGSV,2,2,07,28,15,113,,12,33,315,36,04,66,081,50,,,,*4A
$GLGSV,2,1,08,82,44,275,,65,09,054,,66,08,105,,79,74,240,47*6B
$GLGSV,2,2,08,81,52,007,45,80,38,324,43,88,10,047,,78,22,167,*69
$GNGSA,M,3,04,09,02,17,,,,,,,,,3.4,1.4,3.1*29
$GNGSA,M,3,80,79,81,82,,,,,,,,,3.4,1.4,3.1*25
$GPRMC,174844.00,A,3403.359789,N,11711.808595,W,002.6,177.2,021111,0.0,E,A*2B
$GPGGA,174845.00,3403.359069,N,11711.808653,W,1,08,1.4,392.43,M,-32.50,M,,*5D
$GPVTG,184.2,T,184.2,M,002.8,N,005.1,K,A*2D
$GPGSV,2,1,07,09,55,266,47,02,57,188,47,10,15,125,,17,29,054,40*7C
